     2.11           OBSERVATION DATA    Mixed(MIXED)        RINEX VERSION / TYPE
cnvtToRINEX 3.05.0  convertToRINEX OPR  28-May-19 09:54 UTC PGM / RUN BY / DATE 
----------------------------------------------------------- COMMENT             
2                                                           MARKER NAME         
                                                            MARKER NUMBER       
GNSS Observer       Trimble                                 OBSERVER / AGENCY   
5352450946          TRIMBLE R4-3        5.01                REC # / TYPE / VERS 
52450946            TRMR4-3         NONE                    ANT # / TYPE        
  -453459.8703  4588915.3014  4392355.9473                  APPROX POSITION XYZ 
        1.1191        0.0000        0.0000                  ANTENNA: DELTA H/E/N
     1     1     0                                          WAVELENGTH FACT L1/2
     5    C1    C2    L1    L2    P2                        # / TYPES OF OBSERV 
    30.000                                                  INTERVAL            
  2019     5    14    14    14    0.0000000     GPS         TIME OF FIRST OBS   
  2019     5    14    17    56    0.0000000     GPS         TIME OF LAST OBS    
     0                                                      RCV CLOCK OFFS APPL 
    18                                                      LEAP SECONDS        
    22                                                      # OF SATELLITES     
   G02   147     0   147   147   147                        PRN / # OF OBS      
   G05   266   266   266   532   266                        PRN / # OF OBS      
   G10   170   170   170   340   170                        PRN / # OF OBS      
   G13   420     0   420   420   420                        PRN / # OF OBS      
   G15   445   445   445   890   445                        PRN / # OF OBS      
   G20   299     0   299   299   299                        PRN / # OF OBS      
   G21   437     0   437   437   437                        PRN / # OF OBS      
   G24   180   180   180   360   180                        PRN / # OF OBS      
   G27   133   133   133   266   133                        PRN / # OF OBS      
   G29   311   311   311   622   311                        PRN / # OF OBS      
   R01   297   297   297   594   297                        PRN / # OF OBS      
   R02   445   445   445   890   445                        PRN / # OF OBS      
   R03   275   275   275   550   275                        PRN / # OF OBS      
   R04    17    17    17    34    17                        PRN / # OF OBS      
   R08   103   103   103   206   103                        PRN / # OF OBS      
   R11   132   132   132   264   132                        PRN / # OF OBS      
   R12   107     0   107     0     0                        PRN / # OF OBS      
   R17   445   445   445   890   445                        PRN / # OF OBS      
   R18   292   292   292   584   292                        PRN / # OF OBS      
   R19    97    97    97   194    97                        PRN / # OF OBS      
   R23   146   146   146   292   146                        PRN / # OF OBS      
   R24   316   316   316   632   316                        PRN / # OF OBS      
CARRIER PHASE MEASUREMENTS: PHASE SHIFTS REMOVED            COMMENT             
                                                            END OF HEADER       
 19  5 14 14 14  0.0000000  0 11G02G05G13G15G29R01R02R08R17R23R24   
  22158962.523 6                 116446131.83816  90737227.41358  22158957.63348
  20441003.648 7  20441001.688 9 107418197.16917  83702481.01919  20441001.23049
  22189604.102 6                 116607161.92216  90862712.03557  22189601.63747
  23374327.266 6  23374325.793 9 122832916.97816  95713955.84319  23374325.45347
  20500408.938 7  20500406.410 9 107730372.27917  83945735.71119  20500405.91849
  19122973.781 7  19122973.945 9 102223250.41817  79506978.03019  19122975.793 9
  21979344.281 7  21979344.492 9 117285995.68117  91222446.40119  21979345.316 9
  21039892.172 7  21039889.484 9 112667668.57217  87630408.92719  21039890.508 9
  21945881.180 7  21945881.094 9 117436846.65217  91339774.95319  21945881.672 9
  20270770.344 8  20270771.980 9 108435059.41018  84338298.71419  20270773.348 9
  19351357.813 7  19351356.199 8 103480507.04017  80484764.39818  19351356.055 8
 19  5 14 14 14 30.0000000  0 11G02G05G13G15G29R01R02R08R17R23R24   
  22166125.945 6                 116483772.999 6  90766558.14648  22166120.79348
  20445976.719 7  20445974.910 9 107444331.398 7  83722845.353 9  20445974.31649
  22170243.281 6                 116505420.212 6  90783432.82147  22170241.10247
  23349218.742 6  23349217.324 9 122700968.712 6  95611139.007 9  23349216.91847
  20493274.883 7  20493272.750 9 107692883.603 7  83916523.763 9  20493272.30549
  19119564.172 7  19119564.063 9 102205022.684 7  79492800.901 9  19119565.582 9
  21954112.398 7  21954112.070 9 117151351.168 7  91117722.920 9  21954113.113 9
  21054704.625 6  21054700.996 9 112746983.093 6  87692098.031 9  21054702.344 9
  21922124.211 7  21922123.559 9 117309715.717 7  91240895.349 9  21922124.145 9
  20280612.391 8  20280612.699 9 108487705.513 8  84379245.662 9  20280614.281 9
  19342180.086 7  19342177.461 8 103431428.298 7  80446592.046 8  19342178.398 8
 19  5 14 14 15  0.0000000  0 11G02G05G13G15G29R01R02R08R17R23R24   
  22173367.930 6                 116521829.711 6  90796212.72748  22173362.75448
  20451057.555 7  20451055.160 9 107471030.373 7  83743649.746 9  20451054.80949
  22150989.500 6                 116404238.043 6  90704589.60047  22150986.75847
  23324171.961 6  23324171.410 9 122569351.231 6  95508579.896 9  23324171.11747
  20486285.680 7  20486283.492 9 107656154.997 7  83887904.062 9  20486283.03549
  19116325.250 7  19116325.063 9 102187711.131 7  79479336.376 9  19116327.059 9
  21928975.711 7  21928975.875 9 117017213.147 7  91013393.357 9  21928976.172 9
  21069624.508 7  21069621.953 9 112826876.070 7  87754236.988 9  21069622.469 9
  21898427.672 7  21898426.824 9 117182909.774 7  91142268.538 9  21898427.609 9
  20290582.820 8  20290583.820 9 108541043.392 8  84420730.638 9  20290585.836 9
  19333140.336 7  19333138.996 8 103383092.690 7  80408997.685 8  19333139.313 8
 19  5 14 14 15 30.0000000  0 11G02G05G13G15G29R01R02R08R17R23R24   
  22180681.094 6                 116560263.237 6  90826160.90748  22180676.54348
  20456238.086 7  20456235.641 9 107498253.555 7  83764862.610 9  20456235.45349
  22131834.141 6                 116303579.510 6  90626154.38947  22131832.58247
  23299182.859 6  23299181.430 9 122438028.575 6  95406250.565 9  23299181.03947
  20479434.000 7  20479431.773 9 107620148.672 7  83859847.191 9  20479431.46149
  19113251.234 7  19113251.145 9 102171275.151 7  79466552.846 9  19113252.426 9
  21903926.070 7  21903925.504 9 116883544.646 7  90909429.028 9  21903926.848 9
  21084643.258 7  21084640.406 9 112907304.655 7  87816792.552 9  21084641.363 9
  21874784.680 7  21874784.496 9 117056392.402 7  91043866.129 9  21874785.227 9
  20300676.031 8  20300676.969 9 108595032.808 8  84462722.406 9  20300678.941 9
  19324233.602 7  19324232.496 8 103335463.254 7  80371952.564 8  19324233.078 8
 19  5 14 14 16  0.0000000  0 11G02G05G13G15G29R01R02R08R17R23R24   
  22188063.563 7                 116599056.290 7  90856389.24248  22188058.62148
  20461514.797 7  20461512.344 9 107525982.108 7  83786469.274 9  20461512.16449
  22112776.320 6                 116203430.263 6  90548116.04847  22112774.30147
  23274245.211 6  23274244.957 9 122306986.308 6  95304139.709 9  23274244.88747
  20472716.672 7  20472714.020 9 107584848.954 7  83832340.920 9  20472713.78949
  19110336.711 7  19110336.461 9 102155696.206 7  79454435.897 9  19110338.391 9
  21878961.828 7  21878961.367 9 116750331.378 7  90805818.742 9  21878962.086 9
  21099758.438 7  21099755.848 9 112988247.018 7  87879747.727 9  21099756.793 9
  21851193.141 7  21851192.484 9 116930148.545 7  90945676.509 9  21851193.305 9
  20310887.055 8  20310887.742 9 108649655.276 8  84505206.525 9  20310889.293 9
  19315456.398 7  19315454.492 8 103288524.625 7  80335444.741 8  19315454.805 8
 19  5 14 14 16 30.0000000  0 11G02G05G13G15G29R01R02R08R17R23R24   
  22195509.281 6                 116638184.578 6  90886878.79548  22195505.28148
  20466882.328 7  20466879.738 9 107554190.062 7  83808449.502 9  20466879.46948
  22093811.813 6                 116103769.293 6  90470458.18047  22093809.98447
  23249358.680 6  23249357.867 9 122176203.255 6  95202230.855 9  23249357.35247
  20466129.266 7  20466127.355 9 107550232.558 7  83805367.104 9  20466126.98049
  19107578.000 7  19107577.781 9 102140948.372 7  79442965.366 9  19107579.859 9
  21854078.797 7  21854078.707 9 116617550.754 7  90702544.956 9  21854079.520 9
  21114964.945 7  21114961.262 9 113069674.994 7  87943080.588 9  21114962.469 9
  21827648.406 7  21827647.949 9 116804156.841 7  90847682.983 9  21827648.395 9
  20321211.555 8  20321212.293 9 108704885.255 8  84548163.157 9  20321213.758 9
  19306803.172 7  19306801.438 8 103242254.639 7  80299456.973 8  19306801.988 8
 19  5 14 14 17  0.0000000  0 11G02G05G13G15G29R01R02R08R17R23R24   
  22203018.844 6                 116677647.759 6  90917629.31248  22203014.42648
  20472340.555 7  20472338.230 9 107582874.643 7  83830801.125 9  20472337.80149
  22074940.336 6                 116004598.538 6  90393182.28547  22074938.24647
  23224521.063 6  23224520.410 9 122045681.506 6  95100525.597 9  23224520.18047
  20459672.469 7  20459670.207 9 107516300.178 7  83778926.287 9  20459669.84049
  19104973.867 7  19104973.961 9 102127029.817 7  79432139.834 9  19104975.684 9
  21829277.164 7  21829277.344 9 116485205.750 7  90599609.975 9  21829277.996 9
  21130260.227 7  21130257.918 9 113151583.883 7  88006787.497 9  21130258.652 9
  21804151.109 7  21804150.652 9 116678419.173 7  90749887.041 9  21804151.512 9
  20331649.844 8  20331649.906 9 108760721.011 8  84591590.941 9  20331651.871 9
  19298276.469 7  19298274.559 8 103196654.610 7  80263990.284 8  19298274.727 8
 19  5 14 14 17 30.0000000  0 11G02G05G13G15G29R01R02R08R17R23R24   
  22210588.820 6                 116717427.820 6  90948626.73848  22210584.65648
  20477886.234 7  20477883.789 9 107612016.383 7  83853508.969 9  20477883.57448
  22056158.805 6                 115905903.046 6  90316276.74047  22056157.15247
  23199731.617 6  23199729.895 9 121915406.122 6  94999012.332 9  23199729.26247
  20453342.086 7  20453339.770 9 107483034.751 7  83753005.172 9  20453339.44949
  19102521.930 7  19102521.160 9 102113921.019 7  79421944.113 9  19102523.402 9
  21804554.375 7  21804553.578 9 116353280.067 7  90497001.154 9  21804554.520 9
  21145642.141 6  21145638.996 9 113233951.869 6  88070851.483 9  21145639.715 9
  21780699.250 7  21780697.840 9 116552920.128 7  90652276.694 9  21780698.980 9
  20342197.031 8  20342197.355 9 108817143.646 8  84635475.191 9  20342199.477 9
  19289871.328 7  19289869.930 8 103151709.104 7  80229032.670 8  19289869.980 8
 19  5 14 14 18  0.0000000  0 12G02G05G13G15G21G29R01R02R08R17R23R24
  22218216.156 6                 116757508.455 6  90979858.38948  22218211.46148
  20483515.367 7  20483512.723 9 107641597.282 7  83876559.017 9  20483512.44548
  22037465.305 6                 115807669.691 6  90239731.28347  22037463.96547
  23174984.367 6  23174983.215 9 121785363.587 6  94897680.508 9  23174982.88347
  24584046.844 2                 129190034.24912 100667548.89155  24584044.07045
  20447135.773 7  20447134.035 9 107450421.333 7  83727592.111 9  20447133.74249
  19100217.516 7  19100217.555 9 102101604.445 7  79412364.563 9  19100219.066 9
  21779908.344 7  21779907.578 9 116221760.442 7  90394708.156 9  21779908.219 9
  21161105.578 6  21161103.297 9 113316758.829 6  88135256.893 9  21161104.094 9
  21757289.313 7  21757287.926 9 116427646.519 7  90554841.686 9  21757288.910 9
  20352850.797 8  20352852.418 9 108874135.207 8  84679801.952 9  20352853.996 9
  19281585.078 7  19281583.992 8 103107403.624 7  80194572.849 8  19281584.148 8
 19  5 14 14 18 30.0000000  0 12G02G05G13G15G21G29R01R02R08R17R23R24
  22225900.156 6                 116797889.127 6  91011323.82048  22225895.64148
  20489227.391 7  20489225.262 9 107671615.412 7  83899949.771 9  20489224.78948
  22018861.367 6                 115709901.066 6  90163547.97747  22018858.94147
  23150283.547 6  23150282.199 9 121655556.870 6  94796532.443 9  23150281.39547
  24566312.844 1                 129096845.176 1 100594934.08345  24566310.78545
  20441053.820 7  20441051.934 9 107418460.951 7  83702687.919 9  20441051.68049
  19098060.938 7  19098060.836 9 102090078.517 7  79403399.964 9  19098062.578 9
  21755336.727 7  21755336.609 9 116090649.274 7  90292732.822 9  21755337.234 9
  21176649.969 6  21176648.125 9 113400000.396 6  88200000.326 9  21176648.887 9
  21733920.906 7  21733920.246 9 116302600.822 7  90457583.943 9  21733920.559 9
  20363611.539 8  20363612.266 9 108931694.658 8  84724570.398 9  20363613.980 9
  19273419.953 7  19273419.008 8 103063740.438 7  80160612.598 8  19273419.402 8
 19  5 14 14 19  0.0000000  0 12G02G05G13G15G21G29R01R02R08R17R23R24
  22233640.109 6                 116838563.765 6  91043018.33848  22233635.72748
  20495021.227 7  20495018.781 9 107702062.492 7  83923674.767 9  20495018.44548
  22000344.000 6                 115612593.116 6  90087723.62047  22000341.56347
  23125625.750 6  23125624.605 9 121525982.034 6  94695565.064 9  23125624.30147
  24548593.836 1                 129003725.812 1 100522373.55545  24548591.23445
  20435095.195 7  20435093.070 9 107387147.733 7  83678288.011 9  20435092.84849
  19096051.531 7  19096051.434 9 102079334.833 7  79395043.780 9  19096052.762 9
  21730842.156 7  21730842.313 9 115959942.128 7  90191071.761 9  21730842.680 9
  21192273.898 6  21192272.012 9 113483666.123 6  88265073.671 9  21192273.008 9
  21710595.430 7  21710594.500 9 116177779.151 7  90360500.452 9  21710595.168 9
  20374475.945 8  20374477.340 9 108989814.124 8  84769774.412 9  20374478.980 9
  19265374.227 7  19265372.609 8 103020714.688 7  80127148.126 8  19265372.949 8
 19  5 14 14 19 30.0000000  0 12G02G05G13G15G21G29R01R02R08R17R23R24
  22241436.055 6                 116879531.187 6  91074940.99248  22241431.44148
  20500896.023 7  20500893.762 9 107732935.522 7  83947731.670 9  20500893.57448
  21981915.500 6                 115515748.047 6  90012259.95347  21981913.20747
  23101012.430 6  23101011.539 9 121396641.306 6  94594780.111 9  23101011.52047
  24530886.445 2                 128910675.756 2 100449867.06345  24530884.19545
  20429259.625 7  20429257.914 9 107356481.995 7  83654392.628 9  20429257.39849
  19094186.906 7  19094186.820 9 102069371.196 7  79387294.285 9  19094188.805 9
  21706425.148 7  21706423.992 9 115829641.105 7  90089726.551 9  21706424.684 9
  21207976.719 6  21207974.602 9 113567751.750 6  88330473.598 9  21207975.379 9
  21687311.203 7  21687310.059 9 116053183.552 7  90263592.789 9  21687310.805 9
  20385444.961 8  20385446.004 9 109048491.727 8  84815412.533 9  20385447.988 9
  19257447.406 7  19257446.238 8 102978327.946 7  80094180.662 8  19257446.387 8
 19  5 14 14 20  0.0000000  0 12G02G05G13G15G21G29R01R02R08R17R23R24
  22249284.906 6                 116920777.990 6  91107081.34448  22249281.00448
  20506849.445 7  20506846.984 9 107764218.886 7  83972108.314 9  20506846.60248
  21963572.313 6                 115419354.948 6  89937148.46947  21963570.03547
  23076442.172 5  23076440.934 9 121267523.674 5  94494169.010 9  23076440.74247
  24513190.336 1                 128817681.97511 100377404.36955  24513187.88745
  20423545.109 7  20423542.859 9 107326450.838 7  83630991.724 9  20423542.67649
  19092466.734 7  19092466.871 9 102060172.390 7  79380139.664 9  19092468.551 9
  21682079.602 7  21682079.246 9 115699734.735 7  89988688.320 9  21682080.293 9
  21223753.539 6  21223751.938 9 113652239.463 6  88396186.270 9  21223752.605 9
  21664067.500 7  21664067.305 9 115928803.096 7  90166852.457 9  21664067.738 9
  20396515.711 8  20396516.371 9 109107712.140 8  84861472.841 9  20396518.180 9
  19249638.602 7  19249637.574 8 102936568.418 7  80061701.034 8  19249637.438 8
 19  5 14 14 20 30.0000000  0 12G02G05G13G15G21G29R01R02R08R17R23R24
  22257187.023 6                 116962303.531 6  91139438.88448  22257182.75448
  20512879.797 7  20512877.891 9 107795911.032 7  83996803.494 9  20512877.27748
  21945315.719 6                 115323416.576 6  89862391.31648  21945313.14148
  23051915.656 6  23051914.227 9 121138632.053 6  94393734.026 9  23051913.80547
  24495505.281 1                 128724745.071 1 100304986.07245  24495502.20745
  20417951.328 7  20417949.496 9 107297055.425 7  83608086.211 9  20417949.12949
  19090888.805 7  19090888.891 9 102051736.912 7  79373578.745 9  19090890.531 9
  21657810.844 7  21657809.363 9 115570225.800 7  89887959.193 9  21657810.426 9
  21239605.898 7  21239603.465 9 113737125.333 7  88462208.603 9  21239604.301 9
  21640864.859 7  21640864.238 9 115804640.790 7  90070281.811 9  21640864.969 9
  20407687.414 8  20407689.266 9 109167474.569 8  84907954.718 9  20407690.637 9
  19241946.086 7  19241945.371 8 102895438.569 7  80029711.154 8  19241945.676 8
 19  5 14 14 21  0.0000000  0 12G02G05G13G15G21G29R01R02R08R17R23R24
  22265141.234 6                 117004105.397 6  91172011.76348  22265137.32048
  20518988.016 7  20518986.031 9 107828007.581 7  84021813.788 9  20518985.52349
  21927146.445 6                 115227933.485 6  89787988.92148  21927143.43848
  23027431.352 6  23027429.410 9 121009966.588 6  94293475.253 9  23027429.00047
  24477829.852 2                 128631863.276 2 100232610.73345  24477827.97345
  20412478.414 7  20412476.379 9 107268294.077 7  83585674.774 9  20412476.08249
  19089453.117 7  19089452.805 9 102044060.816 7  79367608.452 9  19089454.449 9
  21633614.828 6  21633614.348 9 115441114.481 6  89787539.341 9  21633615.137 9
  21255530.602 6  21255529.168 9 113822403.299 6  88528535.917 9  21255529.742 9
  21617704.070 7  21617702.387 9 115680696.963 7  89973881.078 9  21617703.617 9
  20418960.523 8  20418962.137 9 109227775.270 8  84954855.241 9  20418963.520 9
  19234373.539 7  19234371.168 8 102854937.804 7  79998210.563 8  19234372.367 8
 19  5 14 14 21 30.0000000  0 12G02G05G13G15G21G29R01R02R08R17R23R24
  22273147.992 6                 117046180.282 6  91204797.35948  22273144.19148
  20525171.742 7  20525169.586 9 107860503.078 7  84047134.941 9  20525169.11348
  21909062.727 6                 115132904.633 6  89713940.48747  21909060.41047
  23002989.750 6  23002988.195 9 120881526.997 6  94193392.484 9  23002987.97347
  24460165.773 2                 128539033.218 2 100160275.63145  24460162.70745
  20407125.445 7  20407123.145 9 107240164.368 7  83563755.524 9  20407122.82449
  19088157.688 7  19088157.617 9 102037138.813 7  79362224.686 9  19088159.746 9
  21609492.750 7  21609493.129 9 115312399.084 7  89687427.408 9  21609494.078 9
  21271527.148 6  21271525.488 9 113908065.899 6  88595162.387 9  21271526.383 9
  21594581.953 7  21594581.344 9 115556970.938 7  89877649.750 9  21594581.926 9
  20430332.656 8  20430333.379 9 109288609.321 8  85002170.590 9  20430335.141 9
  19226916.492 7  19226914.574 8 102815064.791 7  79967198.221 8  19226915.188 8
 19  5 14 14 22  0.0000000  0 12G02G05G13G15G21G29R01R02R08R17R23R24
  22281207.172 6                 117088532.584 6  91237799.13448  22281203.43048
  20531431.688 7  20531429.512 9 107893400.205 7  84072769.064 9  20531429.34848
  21891066.867 6                 115038337.100 6  89640251.51548  21891064.34048
  22978593.086 6  22978591.258 9 120753320.351 6  94093491.232 9  22978591.47747
  24442510.977 3                 128446259.189 3 100087984.19845  24442507.84845
  20401893.406 7  20401891.332 9 107212671.387 7  83542332.416 9  20401891.21549
  19087004.547 7  19087004.020 9 102030973.789 7  79357429.670 9  19087005.922 9
  21585448.242 7  21585447.695 9 115184087.259 7  89587629.359 9  21585448.465 9
  21287596.258 6  21287594.547 9 113994113.555 6  88662088.340 9  21287595.594 9
  21571502.344 7  21571501.738 9 115433470.456 7  89781593.852 9  21571502.559 9
  20441805.000 8  20441806.293 9 109349980.133 8  85049903.424 9  20441807.672 9
  19219578.930 7  19219577.293 8 102775825.799 7  79936679.015 8  19219577.445 8
 19  5 14 14 22 30.0000000  0 12G02G05G13G15G21G29R01R02R08R17R23R24
  22289317.133 6                 117131149.319 6  91271006.96048  22289313.15248
  20537766.109 7  20537763.578 9 107926684.391 7  84098704.786 9  20537763.18049
  21873157.016 6                 114944221.722 6  89566914.88247  21873155.23447
  22954239.109 6  22954236.770 9 120625336.533 6  93993763.613 9  22954236.58647
  24424865.758 2                 128353529.176 2 100015727.09245  24424862.59045
  20396780.445 7  20396778.270 9 107185803.725 7  83521396.583 9  20396778.09849
  19085990.516 7  19085990.184 9 102025551.538 7  79353212.372 9  19085992.008 9
  21561476.133 7  21561476.328 9 115056169.088 7  89488137.486 9  21561477.043 9
  21303734.586 6  21303732.895 9 114080530.057 6  88729301.156 9  21303733.672 9
  21548464.297 7  21548463.742 9 115310185.358 7  89685705.467 9  21548464.359 9
  20453376.180 8  20453376.309 9 109411873.781 8  85098042.910 9  20453378.297 9
  19212357.234 7  19212355.707 8 102737210.458 7  79906644.865 8  19212356.242 8
 19  5 14 14 23  0.0000000  0 12G02G05G13G15G21G29R01R02R08R17R23R24
  22297476.516 6                 117174025.538 6  91304416.98848  22297472.52348
  20544171.867 7  20544168.934 9 107960349.017 7  84124936.959 9  20544168.93049
  21855333.391 6                 114850555.591 6  89493928.30748  21855330.65648
  22929926.063 6  22929924.910 9 120497573.981 6  93894208.409 9  22929924.43047
  24407227.375 4                 128260839.120 4  99943501.09346  24407223.69946
  20391786.102 7  20391784.531 9 107159556.891 7  83500944.510 9  20391783.77049
  19085113.492 7  19085113.809 9 102020865.173 7  79349567.434 9  19085115.523 9
  21537577.539 7  21537576.789 9 114928641.226 7  89388949.176 9  21537577.590 9
  21319938.258 6  21319937.094 9 114167306.468 6  88796793.912 9  21319937.906 9
  21525465.141 7  21525463.875 9 115187113.652 7  89589983.052 9  21525464.977 9
  20465042.695 8  20465043.305 9 109474283.784 8  85146583.997 9  20465045.090 9
  19205252.414 7  19205250.484 8 102699215.797 7  79877093.468 8  19205251.156 8
 19  5 14 14 23 30.0000000  0 12G02G05G13G15G21G29R01R02R08R17R23R24
  22305686.320 6                 117217169.846 6  91338035.91548  22305682.51648
  20550651.813 7  20550649.438 9 107994400.625 7  84151470.679 9  20550649.02349
  21837596.750 6                 114757350.058 6  89421300.63647  21837594.62547
  22905657.813 6  22905656.414 9 120370043.969 6  93794834.401 9  22905656.41847
  24389597.289 4                 128168197.678 4  99871312.97645  24389594.94145
  20386911.648 7  20386909.645 9 107133940.405 7  83480983.607 9  20386909.05949
  19084375.563 7  19084375.305 9 102016921.694 7  79346500.287 9  19084377.434 9
  21513753.531 7  21513753.648 9 114801515.277 7  89290073.467 9  21513754.328 9
  21336211.984 6  21336210.809 9 114254448.016 6  88864570.669 9  21336211.441 9
  21502509.125 7  21502507.516 9 115064267.237 7  89494435.866 9  21502508.336 9
  20476807.477 8  20476808.563 9 109537217.681 8  85195532.555 9  20476810.145 9
  19198265.297 7  19198263.258 8 102661852.489 7  79848033.126 8  19198263.707 8
 19  5 14 14 24  0.0000000  0 12G02G05G13G15G21G29R01R02R08R17R23R24
  22313944.141 6                 117260562.138 6  91371848.06848  22313940.09448
  20557200.672 7  20557198.418 9 108028817.409 7  84178288.943 9  20557198.21949
  21819944.875 6                 114664587.908 6  89349018.45647  21819941.89147
  22881430.625 6  22881428.672 9 120242729.245 6  93695628.160 9  22881428.56647
  24371974.148 4                 128075585.233 4  99799147.46445  24371971.48445
  20382152.930 7  20382150.914 9 107108934.688 7  83461498.642 9  20382150.53549
  19083773.289 7  19083772.969 9 102013699.270 7  79343993.969 9  19083774.656 9
  21490002.633 7  21490002.250 9 114674773.461 7  89191496.530 9  21490002.926 9
  21352549.094 6  21352547.398 9 114341930.168 6  88932612.333 9  21352548.223 9
  21479590.438 7  21479589.066 9 114941628.649 7  89399050.329 9  21479590.148 9
  20488666.148 8  20488666.668 9 109600653.693 8  85244871.649 9  20488668.320 9
  19191393.141 7  19191391.047 8 102625102.258 7  79819449.610 8  19191391.172 8
 19  5 14 14 24 30.0000000  0 12G02G05G13G15G21G29R01R02R08R17R23R24
  22322250.203 6                 117304208.446 6  91405858.15648  22322245.56348
  20563820.820 7  20563818.828 9 108063603.965 7  84205395.353 9  20563818.35949
  21802378.664 6                 114572278.539 6  89277089.09947  21802376.32447
  22857246.180 6  22857244.797 9 120115639.229 6  93596597.006 9  22857244.35547
  24354357.609 4                 127983009.049 4  99727010.20546  24354354.36346
  20377512.344 7  20377509.984 9 107084547.468 7  83442495.609 9  20377509.53949
  19083306.141 7  19083305.758 9 102011202.781 7  79342052.261 9  19083307.719 9
  21466326.023 7  21466324.281 9 114548424.923 7  89093225.467 9  21466325.488 9
  21368949.141 6  21368947.914 9 114429756.080 6  89000921.373 9  21368948.828 9
  21456713.781 7  21456711.680 9 114819207.545 7  89303833.936 9  21456712.824 9
  20500620.289 8  20500621.246 9 109664597.411 8  85294605.625 9  20500622.859 9
  19184636.828 7  19184635.117 8 102588973.715 7  79791349.634 8  19184635.145 8
 19  5 14 14 25  0.0000000  0 12G02G05G13G15G21G29R01R02R08R17R23R24
  22330602.992 6                 117348103.002 6  91440061.68648  22330598.05948
  20570509.281 7  20570507.207 9 108098752.470 7  84232783.794 9  20570506.64849
  21784898.375 6                 114480418.866 6  89205510.15047  21784896.17647
  22833103.633 6  22833102.602 9 119988770.565 6  93497738.339 9  22833102.10547
  24336746.328 4                 127890463.478 4  99654896.79746  24336744.08646
  20372988.609 7  20372986.418 9 107060773.437 7  83423970.391 9  20372985.91049
  19082973.102 7  19082972.699 9 102009424.254 7  79340668.972 9  19082974.395 9
  21442720.508 7  21442720.367 9 114422466.200 7  88995257.593 9  21442720.676 9
  21385413.672 6  21385410.691 9 114517915.758 6  89069489.992 9  21385411.805 9
  21433875.648 7  21433875.320 9 114697000.987 7  89208784.421 9  21433876.137 9
  20512666.891 8  20512668.301 9 109729041.165 8  85344728.526 9  20512669.777 9
  19177995.789 7  19177994.227 8 102553463.086 7  79763730.255 8  19177994.543 8
 19  5 14 14 25 30.0000000  0 12G02G05G13G15G21G29R01R02R08R17R23R24
  22339003.430 6                 117392249.013 6  91474461.14148  22338998.80948
  20577267.125 7  20577264.707 9 108134264.524 7  84260455.522 9  20577264.43049
  21767504.703 6                 114389014.871 6  89134286.27548  21767502.39148
  22809005.281 6  22809003.648 9 119862129.596 6  93399057.100 9  22809003.08647
  24319142.602 3                 127797952.202 3  99582810.13046  24319139.31646
  20368581.898 7  20368579.973 9 107037616.583 7  83405926.092 9  20368579.51249
  19082775.586 7  19082774.602 9 102008365.315 7  79339845.367 9  19082776.391 9
  21419190.109 7  21419190.051 9 114296903.112 7  88897597.428 9  21419190.445 9
  21401938.453 6  21401937.383 9 114606409.168 6  89138318.205 9  21401937.930 9
  21411081.031 7  21411078.664 9 114575015.244 7  89113906.636 9  21411079.773 9
  20524807.922 7  20524809.004 9 109793987.156 7  85395242.047 9  20524810.918 9
  19171471.617 7  19171470.336 8 102518575.125 7  79736595.172 8  19171470.000 8
 19  5 14 14 26  0.0000000  0 12G02G05G13G15G21G29R01R02R08R17R23R24
  22347452.266 6                 117436646.160 6  91509056.29448  22347447.38348
  20584093.563 7  20584091.254 9 108170138.030 7  84288408.904 9  20584091.02749
  21750198.117 6                 114298068.050 6  89063418.64047  21750195.51247
  22784950.125 6  22784948.207 9 119735718.978 6  93300555.365 9  22784947.65648
  24301544.211 4                 127705475.698 4  99510750.52546  24301541.77746
  20364293.016 7  20364290.703 9 107015077.718 7  83388363.340 9  20364290.32849
  19082711.016 7  19082711.250 9 102008024.056 7  79339579.950 9  19082712.719 9
  21395733.594 7  21395733.219 9 114171737.880 7  88800246.702 9  21395734.375 9
  21418526.344 6  21418523.223 9 114695232.357 6  89207402.890 9  21418524.230 9
  21388325.633 7  21388324.875 9 114453253.376 7  89019202.985 9  21388325.770 9
  20537042.359 7  20537043.613 9 109859433.772 7  85446144.949 9  20537045.313 9
  19165064.047 7  19165062.391 8 102484312.079 7  79709946.144 8  19165062.637 8
 19  5 14 14 26 30.0000000  0 12G02G05G13G15G21G29R01R02R08R17R23R24
  22355948.094 6                 117481293.107 6  91543846.10048  22355943.19548
  20590988.023 7  20590986.113 9 108206369.826 7  84316641.475 9  20590985.82849
  21732978.984 6                 114207580.685 6  88992909.01647  21732976.52047
  22760938.281 6  22760937.477 9 119609540.659 6  93202234.639 9  22760937.16847
  24283952.992 3                 127613033.065 3  99438717.32546  24283950.23846
  20360121.508 7  20360118.980 9 106993156.097 7  83371281.553 9  20360118.71149
  19082780.898 7  19082780.977 9 102008397.100 7  79339870.106 9  19082782.473 9
  21372352.016 7  21372352.203 9 114046971.222 7  88703205.987 9  21372353.082 9
  21435174.500 6  21435171.836 9 114784380.112 6  89276740.026 9  21435172.297 9
  21365613.891 7  21365612.719 9 114331717.051 7  88924674.750 9  21365613.531 9
  20549370.258 8  20549371.691 9 109925378.481 8  85497435.267 9  20549372.555 9
  19158773.734 7  19158772.254 8 102450674.589 7  79683783.647 8  19158772.723 8
 19  5 14 14 27  0.0000000  0 12G02G05G13G15G21G29R01R02R08R17R23R24
  22364492.758 6                 117526196.093 6  91578835.40648  22364488.02748
  20597951.727 7  20597949.758 9 108242964.935 7  84345157.145 9  20597949.39549
  21715848.820 6                 114117561.838 6  88922764.47748  21715846.54748
  22736974.242 6  22736972.508 9 119483603.669 6  93104101.957 9  22736971.85248
  24266369.492 4                 127520631.388 4  99366716.04746  24266366.89546
  20356068.594 7  20356066.367 9 106971858.634 7  83354686.125 9  20356066.02349
  19082985.664 7  19082985.238 9 102009489.618 7  79340719.850 9  19082986.953 9
  21349047.867 7  21349047.980 9 113922612.745 7  88606482.749 9  21349048.559 9
  21451882.148 6  21451880.156 9 114873855.732 6  89346332.184 9  21451880.953 9
  21342945.563 7  21342944.645 9 114210416.179 7  88830329.651 9  21342945.590 9
  20561791.758 8  20561792.867 9 109991826.753 8  85549117.238 9  20561794.535 9
  19152602.273 7  19152600.270 8 102417671.564 7  79658114.625 8  19152600.672 8
 19  5 14 14 27 30.0000000  0 12G02G05G13G15G21G29R01R02R08R17R23R24
  22373083.188 6                 117571338.850 6  91614011.55748  22373078.26248
  20604981.320 7  20604979.734 9 108279904.706 7  84373941.377 9  20604979.54349
  21698805.445 6                 114027997.689 6  88852974.25148  21698803.20348
  22713052.242 6  22713050.949 9 119357894.806 6  93006147.025 9  22713050.38348
  24248792.109 4                 127428254.676 4  99294734.24546  24248788.07046
  20352131.602 7  20352129.152 9 106951170.009 7  83338565.120 9  20352129.17249
  19083320.875 7  19083320.469 9 102011283.074 7  79342114.761 9  19083322.434 9
  21325817.016 7  21325816.367 9 113798648.333 7  88510066.001 9  21325817.309 9
  21468648.516 6  21468646.496 9 114963638.800 6  89416163.459 9  21468647.145 9
  21320318.977 7  21320318.773 9 114089337.262 7  88736157.190 9  21320319.223 9
  20574304.336 8  20574305.551 9 110058760.257 8  85601176.610 9  20574307.309 9
  19146546.852 7  19146543.703 8 102385288.016 7  79632927.418 8  19146544.621 8
 19  5 14 14 28  0.0000000  0 12G02G05G13G15G21G29R01R02R08R17R23R24
  22381720.961 6                 117616729.408 6  91649380.80448  22381716.12948
  20612077.539 7  20612075.281 9 108317195.504 7  84402999.143 9  20612074.89149
  21681850.672 6                 113938899.099 6  88783546.78648  21681847.92248
  22689176.188 6  22689174.664 9 119232424.354 6  92908377.876 9  22689174.23048
  24231218.766 3                 127335911.614 3  99222778.65246  24231215.93846
  20348312.156 7  20348310.266 9 106931098.465 7  83322924.954 9  20348309.84449
  19083788.422 7  19083788.984 9 102013783.430 7  79344059.484 9  19083790.449 9
  21302662.359 7  21302661.570 9 113675088.516 7  88413963.940 9  21302662.008 9
  21485473.031 6  21485471.453 9 115053733.621 6  89486237.206 9  21485472.141 9
  21297735.969 7  21297735.363 9 113968491.346 7  88642165.942 9  21297736.500 9
  20586909.102 8  20586910.422 9 110126185.886 8  85653618.756 9  20586911.934 9
  19140607.563 7  19140606.965 8 102353533.497 7  79608229.461 8  19140607.258 8
 19  5 14 14 28 30.0000000  0 12G02G05G13G15G21G29R01R02R08R17R23R24
  22390404.031 6                 117662362.330 6  91684938.89848  22390399.42248
  20619239.211 7  20619237.328 9 108354830.489 7  84432325.107 9  20619237.20349
  21664983.961 6                 113850263.843 6  88714480.37348  21664981.61748
  22665344.859 6  22665343.762 9 119107190.469 6  92810793.050 9  22665342.98048
  24213651.883 4                 127243597.533 4  99150845.65046  24213649.02746
  20344609.250 7  20344607.074 9 106911640.050 7  83307762.555 9  20344606.60949
  19084387.414 7  19084386.887 9 102016983.531 7  79346548.459 9  19084388.801 9
  21279581.484 7  21279581.742 9 113551930.393 7  88318174.316 9  21279582.586 9
  21502355.008 6  21502352.555 9 115144131.326 6  89556546.527 9  21502353.383 9
  21275196.172 7  21275195.676 9 113847876.521 7  88548354.435 9  21275196.262 9
  20599604.344 8  20599605.047 9 110194096.897 8  85706438.414 9  20599606.418 9
  19134787.109 7  19134784.695 8 102322405.151 7  79584018.524 8  19134784.891 8
 19  5 14 14 29  0.0000000  0 12G02G05G13G15G21G29R01R02R08R17R23R24
  22399133.242 6                 117708234.773 6  91720683.63648  22399128.56648
  20626465.422 7  20626463.508 9 108392804.817 7  84461915.492 9  20626463.08249
  21648205.469 6                 113762090.983 6  88645774.26948  21648203.21548
  22641558.914 6  22641556.832 9 118982193.516 6  92713392.857 9  22641556.54747
  24196089.656 3                 127151310.269 3  99078933.50646  24196087.44146
  20341022.555 7  20341020.629 9 106892792.018 7  83293075.772 9  20341020.20349
  19085116.297 7  19085115.980 9 102020878.967 7  79349578.246 9  19085117.805 9
  21256577.453 7  21256577.543 9 113429173.937 7  88222697.103 9  21256578.230 9
  21519290.414 6  21519288.977 9 115234825.712 6  89627086.600 9  21519290.086 9
  21252700.523 7  21252699.438 9 113727493.265 7  88454723.021 9  21252700.074 9
  20612389.914 8  20612390.164 9 110262489.141 8  85759632.366 9  20612391.984 9
  19129082.969 7  19129080.953 8 102291902.327 7  79560294.104 8  19129081.359 8
 19  5 14 14 29 30.0000000  0 12G02G05G13G15G21G29R01R02R08R17R23R24
  22407909.188 6                 117754351.855 6  91756619.01248  22407904.47348
  20633756.844 7  20633755.082 9 108431121.604 7  84491772.727 9  20633754.62549
  21631515.867 6                 113674388.663 6  88577434.81448  21631513.53148
  22617818.633 6  22617817.383 9 118857441.232 6  92616183.313 9  22617817.17248
  24178534.711 4                 127059055.618 4  99007046.80446  24178531.64846
  20337553.516 7  20337551.238 9 106874560.373 7  83278869.293 9  20337550.78149
  19085975.281 7  19085975.355 9 102025472.926 7  79353151.329 9  19085977.164 9
  21233649.008 7  21233649.531 9 113306826.535 7  88127538.044 9  21233650.656 9
  21536284.102 6  21536281.605 9 115325818.439 6  89697858.711 9  21536282.266 9
  21230247.859 7  21230247.309 9 113607350.134 7  88361278.394 9  21230248.059 9
  20625266.172 8  20625266.578 9 110331366.655 8  85813203.750 9  20625267.602 9
  19123496.883 7  19123495.000 8 102262031.938 7  79537061.576 8  19123495.785 8
 19  5 14 14 30  0.0000000  0 12G02G05G13G15G21G29R01R02R08R17R23R24
  22416732.648 6                 117800718.107 6  91792748.53648  22416727.21548
  20641114.188 7  20641112.031 9 108469784.195 7  84521899.427 9  20641111.60549
  21614917.688 6                 113587163.998 6  88509467.56448  21614915.50448
  22594127.195 6  22594126.082 9 118732941.133 6  92519170.286 9  22594125.75448
  24160986.188 4                 126966838.625 4  98935189.45445  24160983.25445
  20334202.039 7  20334199.836 9 106856950.530 7  83265147.331 9  20334199.62549
  19086965.492 8  19086965.695 9 102030768.011 8  79357269.730 9  19086967.602 9
  21210800.070 7  21210799.117 9 113184895.367 7  88032702.729 9  21210799.930 9
  21553331.820 6  21553329.289 9 115417110.400 6  89768863.560 9  21553330.004 9
  21207843.281 7  21207842.863 9 113487454.729 7  88268026.439 9  21207843.961 9
  20638232.953 7  20638232.836 9 110400732.502 7  85867154.948 9  20638234.805 8
  19118030.688 7  19118028.238 8 102232800.525 7  79514326.038 8  19118028.648 8
 19  5 14 14 30 30.0000000  0 12G02G05G13G15G21G29R01R02R08R17R23R24
  22425600.969 6                 117847321.131 6  91829062.55948  22425596.05948
  20648534.766 7  20648532.582 9 108508778.313 7  84552284.453 9  20648532.14149
  21598408.281 6                 113500407.462 6  88441865.08348  21598406.23448
  22570481.547 6  22570480.527 9 118608683.622 6  92422346.282 9  22570480.02748
  24143443.008 4                 126874647.454 4  98863352.19946  24143440.03946
  20330967.344 7  20330965.141 9 106839949.878 7  83251900.069 9  20330964.93049
  19088084.828 7  19088083.992 9 102036749.626 7  79361922.104 9  19088086.020 9
  21188025.586 7  21188025.750 9 113063370.145 7  87938183.146 9  21188026.426 9
  21570432.938 6  21570430.242 9 115508685.597 6  89840088.708 9  21570431.082 9
  21185482.789 7  21185481.508 9 113367797.607 7  88174959.810 9  21185482.125 9
  20651288.180 8  20651289.820 9 110470572.451 8  85921474.891 9  20651290.883 8
  19112681.141 7  19112679.547 8 102204197.243 7  79492079.039 8  19112679.938 8
 19  5 14 14 31  0.0000000  0 12G02G05G13G15G21G29R01R02R08R17R23R24
  22434513.984 6                 117894160.077 6  91865560.42448  22434509.15248
  20656017.563 7  20656015.363 9 108548101.792 7  84582926.129 9  20656015.07449
  21581988.570 6                 113414121.145 6  88374629.01948  21581986.35548
  22546882.930 6  22546881.902 9 118484671.421 6  92325713.442 9  22546881.36747
  24125904.094 4                 126782482.377 4  98791535.29746  24125901.35946
  20327848.172 7  20327846.172 9 106823559.160 7  83239128.086 9  20327845.77749
  19089331.992 8  19089331.785 9 102043415.387 8  79367106.595 9  19089333.645 9
  21165329.289 7  21165328.125 9 112942252.800 7  87843980.791 9  21165328.820 9
  21587585.086 6  21587583.492 9 115600539.667 6  89911530.762 9  21587584.082 9
  21163166.227 7  21163165.906 9 113248381.945 7  88082080.981 9  21163166.301 9
  20664432.492 8  20664433.992 9 110540884.960 8  85976162.377 9  20664435.031 9
  19107450.688 7  19107448.551 8 102176223.483 7  79470321.675 8  19107449.156 8
 19  5 14 14 31 30.0000000  0 12G02G05G13G15G21G29R01R02R08R17R23R24
  22443472.305 6                 117941238.246 6  91902244.70948  22443467.70348
  20663563.500 7  20663561.254 9 108587755.764 7  84613825.326 9  20663560.87149
  21565658.758 6                 113328310.764 6  88307763.79248  21565657.40248
  22523332.445 6  22523330.910 9 118360910.321 6  92229276.257 9  22523330.46147
  24108371.656 4                 126690346.774 4  98719741.33446  24108368.46546
  20324845.820 7  20324843.672 9 106807781.944 7  83226834.147 9  20324843.58649
  19090707.336 8  19090707.168 9 102050766.152 8  79372823.869 9  19090709.219 9
  21142708.453 7  21142708.605 9 112821549.229 7  87750100.270 9  21142709.121 9
  21604790.352 6  21604788.473 9 115692672.521 6  89983189.644 9  21604789.090 9
  21140897.164 7  21140895.910 9 113129213.942 7  87989394.773 9  21140896.801 9
  20677664.906 8  20677666.266 9 110611671.311 8  86031218.413 9  20677667.824 8
  19102338.320 7  19102335.410 8 102148884.293 7  79449057.856 8  19102335.953 8
 19  5 14 14 32  0.0000000  0 12G02G05G13G15G21G29R01R02R08R17R23R24
  22452475.883 6                 117988551.989 6  91939112.54148  22452471.25848
  20671171.211 7  20671169.520 9 108627734.930 7  84644977.925 9  20671169.12949
  21549420.305 6                 113242975.742 6  88241268.99148  21549418.36748
  22499827.930 6  22499827.660 9 118237399.775 6  92133034.314 9  22499827.12548
  24090843.422 4                 126598238.245 4  98647968.49246  24090841.34446
  20321959.633 7  20321957.742 9 106792615.447 7  83215016.101 9  20321957.44549
  19092208.953 7  19092209.027 9 102058796.570 7  79379069.756 9  19092211.020 9
  21120166.063 7  21120164.996 9 112701257.857 7  87656540.340 9  21120166.121 9
  21622047.438 6  21622044.141 9 115785077.126 6  90055059.889 9  21622044.984 9
  21118673.695 7  21118672.594 9 113010293.358 7  87896901.006 9  21118673.387 9
  20690986.414 8  20690987.066 9 110682926.443 8  86086639.058 9  20690988.395 8
  19097343.383 7  19097341.742 8 102122178.114 7  79428286.382 8  19097342.125 8
 19  5 14 14 32 30.0000000  0 12G02G05G13G15G21G29R01R02R08R17R23R24
  22461525.156 6                 118036107.909 6  91976169.08648  22461520.67648
  20678842.172 7  20678839.922 9 108668044.254 7  84676387.785 9  20678839.57849
  21533273.672 6                 113158124.640 6  88175151.26748  21533271.49248
  22476374.766 6  22476373.434 9 118114149.573 6  92036995.225 9  22476373.49248
  24073322.602 4                 126506163.886 4  98576222.28346  24073320.04346
  20319191.047 7  20319188.781 9 106778066.216 7  83203679.027 9  20319188.45749
  19093839.844 7  19093839.629 9 102067511.544 7  79385848.074 9  19093841.090 9
  21097702.914 7  21097703.148 9 112581388.470 7  87563308.624 9  21097703.566 9
  21639354.633 6  21639351.258 9 115877756.530 6  90127143.838 9  21639351.926 9
  21096498.969 7  21096497.883 9 112891630.534 7  87804607.719 9  21096498.680 9
  20704394.781 8  20704396.211 9 110754656.281 8  86142428.907 9  20704397.777 9
  19092469.469 7  19092467.918 8 102096113.345 7  79408013.782 8  19092467.543 8
 19  5 14 14 33  0.0000000  0 12G02G05G13G15G21G29R01R02R08R17R23R24
  22470618.500 6                 118083890.610 6  92013402.33647  22470613.62147
  20686572.086 7  20686569.992 9 108708666.882 7  84708041.778 9  20686569.77049
  21517216.883 6                 113073745.323 6  88109401.17048  21517215.02748
  22452967.789 6  22452966.727 9 117991147.694 6  91941149.635 9  22452966.48048
  24055804.969 4                 126414109.146 4  98504491.34046  24055802.05146
  20316537.359 7  20316535.340 9 106764120.398 7  83192812.151 9  20316534.93049
  19095594.492 7  19095594.738 9 102076893.403 7  79393145.079 9  19095596.285 9
  21075315.773 7  21075315.242 9 112461927.512 7  87470394.579 9  21075316.070 9
  21656709.375 6  21656706.121 9 115970692.385 6  90199427.265 9  21656707.176 9
  21074369.594 7  21074369.059 9 112773213.313 7  87712505.451 9  21074369.695 9
  20717889.836 8  20717891.008 9 110826843.637 8  86198574.627 9  20717892.375 9
  19087712.367 7  19087710.566 8 102070676.602 7  79388229.644 8  19087710.891 8
 19  5 14 14 33 30.0000000  0 12G02G05G13G15G21G29R01R02R08R17R23R24
  22479758.594 6                 118131922.469 6  92050829.75948  22479753.66048
  20694365.977 7  20694363.855 9 108749623.184 7  84739955.773 9  20694363.49248
  21501254.180 6                 112989862.228 6  88044037.74948  21501252.38748
  22429613.328 6  22429612.164 9 117868418.663 6  91845516.644 9  22429612.15648
  24038295.336 4                 126322096.936 4  98432793.52246  24038292.75846
  20314002.406 7  20313999.836 9 106750799.575 7  83182432.290 9  20313999.48049
  19097478.414 7  19097478.570 9 102086962.289 7  79400976.430 9  19097479.742 9
  21053010.523 7  21053009.582 9 112342900.504 7  87377818.039 9  21053010.430 9
  21674115.047 5  21674112.902 9 116063903.120 5  90271924.505 9  21674114.078 9
  21052291.375 7  21052290.273 9 112655067.298 7  87620614.138 9  21052291.246 9
  20731474.094 8  20731474.922 9 110899509.312 8  86255092.345 9  20731476.430 9
  19083077.195 7  19083075.605 8 102045891.873 7  79368952.640 8  19083076.129 8
 19  5 14 14 34  0.0000000  0 12G02G05G13G15G21G29R01R02R08R17R23R24
  22488943.930 6                 118180193.215 6  92088443.29447  22488939.49647
  20702221.063 7  20702219.055 9 108790901.499 7  84772120.705 9  20702218.56648
  21485385.563 6                 112906468.269 6  87979055.45148  21485383.26248
  22406310.008 6  22406308.281 9 117745955.892 6  91750091.143 9  22406308.18448
  24020792.680 5                 126230117.877 5  98361121.56046  24020789.65646
  20311584.578 7  20311582.461 9 106738094.593 7  83172532.299 9  20311582.14849
  19099488.227 7  19099488.246 9 102097706.223 7  79409332.836 9  19099489.672 9
  21030784.508 7  21030783.754 9 112224299.271 7  87285572.649 9  21030784.434 9
  21691569.945 6  21691567.895 9 116157375.530 6  90344625.253 9  21691568.508 9
  21030262.523 8  21030261.824 9 112537186.013 8  87528928.709 9  21030262.430 9
  20745144.414 8  20745146.184 9 110972641.898 8  86311973.242 9  20745148.211 8
  19078562.648 7  19078561.469 8 102021750.813 7  79350176.249 8  19078561.895 8
 19  5 14 14 34 30.0000000  0 12G02G05G13G15G21G29R01R02R08R17R23R24
  22498173.328 6                 118228693.991 6  92126236.09248  22498168.85548
  20710135.109 7  20710132.676 9 108832491.018 7  84804528.114 9  20710132.15248
  21469607.375 6                 112823556.733 6  87914449.08848  21469605.67648
  22383055.695 6  22383054.020 9 117623753.239 6  91654868.326 9  22383053.97348
  24003294.000 5                 126138163.885 5  98289469.10946  24003291.68446
  20309282.469 7  20309280.473 9 106725997.213 7  83163105.762 9  20309280.13349
  19101622.047 7  19101621.977 9 102109113.950 7  79418205.516 9  19101623.746 9
  21008636.547 8  21008636.836 9 112106117.051 8  87193653.163 9  21008637.531 9
  21709072.836 6  21709070.402 9 116251096.728 6  90417519.491 9  21709070.965 9
  21008282.281 7  21008280.730 9 112419563.739 7  87437444.743 9  21008281.621 9
  20758901.078 7  20758903.289 9 111046230.862 7  86369209.099 9  20758904.449 9
  19074167.672 7  19074166.715 8 101998246.258 7  79331894.928 8  19074166.793 8
 19  5 14 14 35  0.0000000  0 12G02G05G13G15G21G29R01R02R08R17R23R24
  22807238.133 6                 119852843.488 6  93391807.10648  22807233.71948
  21017900.656 7  21017898.617 9 110449809.600 7  86064776.360 9  21017898.28148
  21753715.898 6                 114316553.983 6  89077823.58548  21753713.27048
  22659644.156 7  22659643.168 9 119077238.180 7  92787454.021 9  22659642.60948
  24285594.180 5                 127621659.295 5  99445439.59946  24285591.69146
  20606889.297 7  20606886.539 9 108289928.777 7  84381753.730 9  20606886.34049
  19403672.133 8  19403672.145 9 103723746.038 8  80674030.468 9  19403673.926 9
  21286361.680 7  21286361.992 9 113588110.638 7  88346314.855 9  21286362.555 9
  22026411.695 6  22026409.414 9 117950436.147 6  91739227.948 9  22026410.219 9
  21286143.484 7  21286142.559 9 113906458.223 7  88593918.247 9  21286143.094 9
  21072535.234 7  21072536.313 9 112723960.251 7  87674109.729 9  21072538.316 8
  19369684.047 7  19369682.609 8 103578506.169 7  80560985.964 8  19369683.133 8
 19  5 14 14 35 30.0000000  0 12G02G05G13G15G21G29R01R02R08R17R23R24
  22816556.242 6                 119901808.234 6  93429961.43847  22816551.59047
  21025933.219 7  21025930.934 9 110492021.112 7  86097668.451 9  21025930.52049
  21738123.953 6                 114234619.636 6  89013978.65848  21738122.00448
  22636492.219 6  22636489.789 9 118955568.610 6  92692646.594 9  22636489.24648
  24268106.133 5                 127529761.507 5  99373830.94946  24268103.89546
  20604819.164 7  20604817.199 9 108279052.059 7  84373278.364 9  20604816.95749
  19406054.539 7  19406054.734 9 103736479.029 7  80683933.917 9  19406056.031 9
  21264374.336 8  21264374.039 9 113470777.966 8  88255056.138 9  21264374.777 9
  22044005.680 6  22044003.516 9 118044649.659 6  91812505.089 9  22044004.227 9
  21264263.305 7  21264261.676 9 113789368.301 7  88502848.342 9  21264262.273 9
  21086462.977 7  21086464.000 9 112798461.203 7  87732054.906 9  21086465.355 8
  19365528.453 7  19365526.828 8 103556283.854 7  80543701.948 8  19365526.773 8
 19  5 14 14 36  0.0000000  0 12G02G05G13G15G21G29R01R02R08R17R23R24
  22825918.633 6                 119951006.666 6  93468297.86047  22825914.53547
  21034024.680 7  21034022.691 9 110534542.665 7  86130802.128 9  21034022.29348
  21722626.109 6                 114153179.112 6  88950518.53148  21722624.39548
  22613390.742 6  22613388.688 9 118834171.960 6  92598051.821 9  22613388.28148
  24250625.461 5                 127437894.889 5  99302246.58846  24250621.75046
  20602865.789 7  20602863.477 9 108268787.473 7  84365279.983 9  20602863.34849
  19408560.156 7  19408559.414 9 103749873.152 7  80694351.564 9  19408561.340 9
  21242466.867 8  21242466.309 9 113353875.445 8  88164131.979 9  21242467.039 9
  22061644.523 6  22061641.805 9 118139105.811 6  91885971.019 9  22061642.785 9
  21242432.125 7  21242431.477 9 113672551.441 7  88411990.806 9  21242432.234 9
  21100474.797 7  21100475.453 9 112873417.644 7  87790354.350 9  21100477.227 8
  19361493.047 7  19361492.066 8 103534706.840 7  80526919.816 8  19361492.191 8
 19  5 14 14 36 30.0000000  0 12G02G05G13G15G21G29R01R02R08R17R23R24
  22835324.656 6                 120000440.318 6  93506817.58347  22835320.99647
  21042174.992 7  21042173.590 9 110577374.354 7  86164177.471 9  21042173.06648
  21707223.656 6                 114072237.310 6  88887447.01248  21707221.68448
  22590342.219 6  22590340.801 9 118713053.225 6  92503673.609 9  22590340.61348
  24233149.648 5                 127346061.839 5  99230688.41046  24233146.49246
  20601029.508 7  20601027.586 9 108259137.507 7  84357760.527 9  20601027.13349
  19411189.258 7  19411189.363 9 103763928.269 7  80705283.324 9  19411191.004 9
  21220640.945 8  21220640.035 9 113237407.569 8  88073545.869 9  21220640.992 9
  22079327.953 6  22079326.465 9 118233803.256 6  91959624.553 9  22079327.422 9
  21220654.281 7  21220653.930 9 113556013.205 7  88321349.979 9  21220654.547 9
  21114572.914 7  21114573.488 8 112948829.858 7  87849008.291 8  21114574.863 8
  19357579.734 7  19357578.406 8 103513778.781 7  80510642.434 8  19357578.605 8
 19  5 14 14 37  0.0000000  0 12G02G05G13G15G21G29R01R02R08R17R23R24
  22844774.281 5                 120050095.796 5  93545510.13947  22844770.19547
  21050382.141 7  21050380.148 9 110620501.238 7  86197782.829 9  21050379.55548
  21691913.711 6                 113991782.942 6  88824755.32048  21691911.74648
  22567345.383 7  22567343.086 9 118592201.595 7  92409503.549 9  22567342.87948
  24215678.016 5                 127254249.558 5  99159146.39346  24215675.24246
  20599308.125 7  20599305.648 9 108250089.206 7  84350709.897 9  20599305.54349
  19413938.945 7  19413938.629 9 103778628.271 7  80716716.666 9  19413940.500 9
  21198893.219 8  21198893.551 9 113121362.622 8  87983288.706 9  21198894.160 9
  22097054.102 5  22097051.859 9 118328724.685 5  92033452.360 9  22097052.617 9
  21198926.703 7  21198926.125 9 113439743.140 7  88230917.733 9  21198927.027 9
  21128752.477 7  21128753.668 8 113024682.857 7  87908005.050 8  21128755.230 8
  19353785.250 7  19353783.816 8 103493487.799 7  80494860.559 8  19353784.191 8
 19  5 14 14 37 30.0000000  0 12G02G05G13G15G21G29R01R02R08R17R23R24
  22854268.070 5                 120099986.636 5  93584386.11548  22854264.56348
  21058647.320 7  21058645.500 9 110663934.823 7  86231627.179 9  21058645.06648
  21676699.531 6                 113911831.866 6  88762455.79348  21676697.33248
  22544402.141 7  22544399.840 9 118471633.496 7  92315554.415 9  22544399.18448
  24198213.875 5                 127162472.314 5  99087631.69446  24198210.71546
  20597703.234 7  20597700.840 9 108241656.174 7  84344138.699 9  20597700.41049
  19416812.117 7  19416812.480 9 103793984.623 7  80728660.498 9  19416813.793 9
  21177229.164 8  21177228.332 9 113005756.610 8  87893372.941 9  21177229.461 9
  22114824.023 6  22114821.758 9 118423880.593 6  92107462.486 9  22114823.000 9
  21177252.352 7  21177251.492 9 113323758.401 7  88140707.402 9  21177252.371 9
  21143017.641 7  21143017.930 9 113100988.410 7  87967353.802 9  21143019.484 8
  19350112.883 7  19350111.676 8 103473849.171 7  80479586.071 8  19350111.723 8
 19  5 14 14 38  0.0000000  0 12G02G05G13G15G21G29R01R02R08R17R23R24
  22863807.664 6                 120150113.199 6  93623445.75847  22863803.40247
  21066970.648 7  21066968.332 9 110707674.143 7  86265709.760 9  21066967.93448
  21661581.438 6                 113832387.146 6  88700550.84148  21661579.72748
  22521513.211 7  22521511.281 9 118351352.628 7  92221829.083 9  22521510.75048
  24180755.336 5                 127070731.371 5  99016145.27546  24180753.12946
  20596215.531 7  20596212.711 9 108233839.104 7  84338047.475 9  20596212.52349
  19419806.367 8  19419806.848 9 103809995.716 8  80741113.575 9  19419808.484 9
  21155647.359 8  21155646.855 9 112890592.724 8  87803801.044 9  21155647.523 9
  22132636.672 5  22132634.141 9 118519268.262 5  92181652.888 9  22132635.477 9
  21155631.805 7  21155630.523 9 113208063.250 7  88050722.316 9  21155631.668 9
  21157366.289 7  21157367.703 9 113177745.631 7  88027053.832 9  21157368.906 8
  19346562.328 7  19346562.258 8 103454864.864 7  80464820.493 8  19346561.660 8
 19  5 14 14 38 30.0000000  0 12G02G05G13G15G21G29R01R02R08R17R23R24
  22873390.414 5                 120200471.628 5  93662686.07947  22873386.31647
  21075350.953 7  21075348.844 9 110751713.570 7  86300026.191 9  21075348.30548
  21646560.227 6                 113753447.709 6  88639039.61548  21646557.66048
  22498679.078 7  22498677.176 9 118231358.002 7  92128326.794 9  22498676.57848
  24163304.164 5                 126979023.966 5  98944684.99346  24163301.55946
  20594844.563 7  20594842.605 9 108226634.903 7  84332433.802 9  20594842.29349
  19422923.406 7  19422923.230 9 103826655.181 7  80754070.944 9  19422924.801 9
  21134148.109 8  21134147.984 9 112775869.063 8  87714571.555 9  21134148.852 9
  22150491.977 5  22150489.980 9 118614880.434 5  92256017.937 9  22150490.273 9
  21134065.305 7  21134064.230 9 113092657.072 7  87960961.972 9  21134065.086 9
  21171798.305 7  21171799.309 9 113254949.097 7  88087100.963 9  21171801.008 8
  19343134.203 7  19343132.828 8 103436532.923 7  80450562.313 8  19343132.891 8
 19  5 14 14 39  0.0000000  0 12G02G05G13G15G21G29R01R02R08R17R23R24
  22883018.469 6                 120251067.123 6  93702111.11848  22883014.24648
  21083789.070 7  21083787.004 9 110796056.723 7  86334579.300 9  21083786.34048
  21631635.672 6                 113675020.849 6  88577927.79748  21631633.70748
  22475900.914 7  22475898.848 9 118111657.939 7  92035054.043 9  22475898.41448
  24145861.008 5                 126887355.841 5  98873255.31346  24145858.19946
  20593591.141 7  20593588.797 9 108220048.334 7  84327301.407 9  20593588.53149
  19426161.789 7  19426161.910 9 103843966.126 7  80767535.018 9  19426163.453 9
  21112732.875 8  21112732.547 9 112661593.229 8  87625690.373 9  21112733.363 9
  22168389.820 5  22168387.125 9 118710719.437 5  92330559.336 9  22168388.652 9
  21112554.828 7  21112553.871 9 112977548.896 7  87871433.416 9  21112554.832 9
  21186315.180 7  21186315.824 9 113332602.310 7  88147497.891 9  21186317.863 8
  19339828.438 7  19339827.512 8 103418860.090 7  80436816.772 8  19339827.883 8
 19  5 14 14 39 30.0000000  0 12G02G05G13G15G21G29R01R02R08R17R23R24
  22892690.859 6                 120301892.858 6  93741715.57148  22892686.23448
  21092283.758 7  21092281.418 9 110840695.386 7  86369362.675 9  21092281.18848
  21616808.578 6                 113597102.798 6  88517212.44348  21616805.99248
  22453178.117 7  22453175.906 9 117992248.467 7  91942007.715 9  22453175.20348
  24128423.273 5                 126795721.274 5  98801851.79146  24128420.14146
  20592454.016 7  20592451.473 9 108214073.413 7  84322645.611 9  20592451.27049
  19429520.391 7  19429520.879 9 103861919.599 7  80781498.832 9  19429522.547 9
  21091401.125 8  21091400.012 9 112547760.748 8  87537154.020 9  21091400.633 9
  22186327.141 5  22186324.188 9 118806774.699 5  92405268.960 9  22186324.641 9
  21091099.359 8  21091098.410 9 112862735.390 8  87782134.038 9  21091099.176 9
  21200913.500 7  21200914.574 9 113410696.713 7  88208237.961 9  21200916.238 8
  19336646.406 7  19336645.574 8 103401840.831 7  80423579.555 8  19336645.875 8
 19  5 14 14 40  0.0000000  0 12G02G05G13G15G21G29R01R02R08R17R23R24
  22902407.773 6                 120352956.686 6  93781505.55848  22902403.40248
  21100835.531 7  21100833.844 9 110885635.807 7  86404381.184 9  21100833.33248
  21602079.922 6                 113519703.328 6  88456901.18448  21602077.54348
  22430512.648 7  22430510.797 9 117873140.697 7  91849196.491 9  22430510.33648
  24110993.727 5                 126704128.836 5  98730481.08446  24110991.10946
  20591435.109 7  20591433.129 9 108208717.918 7  84318472.494 9  20591432.77049
  19433001.094 7  19432999.984 9 103880521.044 7  80795966.630 9  19433001.758 9
  21070153.922 8  21070153.707 9 112434382.175 8  87448970.714 9  21070154.297 9
  22204305.258 5  22204303.758 9 118903051.213 5  92480150.745 9  22204303.813 9
  21069700.398 8  21069699.484 9 112748227.978 8  87693072.746 9  21069700.488 9
  21215596.102 7  21215597.629 9 113489238.922 7  88269326.326 9  21215599.395 8
  19333588.211 7  19333586.371 8 103385484.975 7  80410858.329 8  19333587.301 8
 19  5 14 14 40 30.0000000  0 12G02G05G13G15G21G29R01R02R08R17R23R24
  22912168.258 6                 120404248.750 6  93821473.38648  22912164.57848
  21109443.055 7  21109440.430 9 110930866.709 7  86439626.041 9  21109440.19548
  21587448.492 6                 113442815.228 6  88396988.39548  21587445.96148
  22407902.445 7  22407900.969 9 117754327.719 7  91756614.980 9  22407900.57448
  24093570.688 4                 126612569.886 4  98659136.48346  24093567.71546
  20590532.031 7  20590529.941 9 108203973.103 7  84314775.230 9  20590529.53949
  19436599.180 7  19436598.145 9 103899758.338 7  80810928.971 9  19436600.070 9
  21048989.867 8  21048989.930 9 112321449.705 8  87361134.374 9  21048990.875 9
  22222321.219 5  22222321.848 9 118999535.797 5  92555194.331 9  22222322.637 9
  21048358.461 8  21048357.137 9 112634020.705 8  87604244.888 9  21048357.730 9
  21230360.797 7  21230362.520 9 113568217.755 7  88330754.294 9  21230363.332 8
  19330652.031 7  19330649.594 8 103369784.173 7  80398646.584 8  19330650.477 8
 19  5 14 14 41  0.0000000  0 12G02G05G13G15G21G29R01R02R08R17R23R24
  22921971.883 6                 120455767.157 6  93861617.58848  22921967.87148
  21118104.242 7  21118101.934 9 110976384.138 7  86475094.168 9  21118101.64548
  21572914.203 6                 113366439.444 6  88337474.81548  21572912.30948
  22385349.742 7  22385348.332 9 117635810.688 7  91664264.090 9  22385347.91848
  24076153.711 5                 126521042.972 5  98587816.83947  24076150.58247
  20589745.000 7  20589742.715 9 108199836.471 7  84311551.884 9  20589742.54749
  19440316.273 7  19440315.641 9 103919627.426 7  80826382.713 9  19440317.508 9
  21027910.164 8  21027909.758 9 112208963.839 8  87273645.396 9  21027910.523 9
  22240379.789 5  22240378.031 9 119096223.474 5  92630395.832 9  22240379.207 9
  21027072.531 8  21027070.805 9 112520114.898 8  87515651.501 9  21027072.016 9
  21245205.375 7  21245206.930 9 113647629.107 7  88392518.670 9  21245208.730 8
  19327837.883 7  19327836.789 8 103354737.981 7  80386943.982 8  19327837.426 8
 19  5 14 14 41 30.0000000  0 12G02G05G13G15G21G29R01R02R08R17R23R24
  22931819.609 6                 120507513.874 6  93901939.68748  22931815.16448
  21126820.898 7  21126818.359 9 111022188.929 7  86510786.209 9  21126818.12148
  21558478.961 6                 113290580.451 6  88278363.93548  21558476.67648
  22362853.969 7  22362852.348 9 117517594.654 7  91572147.727 9  22362852.09048
  24058743.227 5                 126429551.507 5  98516524.82047  24058740.33647
  20589074.094 7  20589072.121 9 108196310.340 7  84308804.241 9  20589071.57049
  19444151.250 7  19444150.777 9 103940127.859 7  80842327.500 9  19444152.879 9
  21006914.383 8  21006914.703 9 112096928.741 8  87186507.006 9  21006915.242 9
  22258471.656 5  22258470.336 9 119193113.162 5  92705754.451 9  22258471.934 9
  21005843.836 7  21005842.727 9 112406516.467 7  87427297.188 9  21005843.395 9
  21260132.523 8  21260132.816 9 113727473.683 8  88454619.990 9  21260134.680 8
  19325147.359 7  19325146.430 8 103340349.815 7  80375753.189 8  19325146.785 8
 19  5 14 14 42  0.0000000  0 12G02G05G13G15G21G29R01R02R08R17R23R24
  22941708.477 6                 120559482.239 6  93942434.50148  22941704.06648
  21135590.305 7  21135588.434 9 111068272.848 7  86546695.761 9  21135587.81348
  21544141.047 6                 113215233.688 6  88219652.18648  21544138.84048
  22340414.906 7  22340412.816 9 117399676.282 7  91480263.314 9  22340412.46948
  24041338.828 5                 126338089.604 5  98445255.84847  24041335.89847
  20588517.922 7  20588515.855 9 108193388.302 7  84306527.326 9  20588515.66049
  19448102.461 7  19448102.285 9 103961250.642 7  80858756.329 9  19448104.352 9
  20986003.539 8  20986002.953 9 111985340.120 8  87099715.888 9  20986003.637 9
  22276601.766 5  22276600.617 9 119290194.556 5  92781262.191 9  22276601.895 9
  20984671.984 7  20984670.371 9 112293222.367 7  87339179.571 9  20984671.242 9
  21275137.156 7  21275138.785 9 113807742.782 7  88517051.505 9  21275140.211 8
  19322578.969 7  19322577.805 8 103326614.652 7  80365070.290 8  19322577.852 8
 19  5 14 14 42 30.0000000  0 12G02G05G13G15G21G29R01R02R08R17R23R24
  22951643.375 6                 120611690.240 6  93983116.04148  22951638.90248
  21144415.797 7  21144413.809 9 111114652.048 7  86582835.395 9  21144413.31648
  21529904.266 6                 113140419.504 6  88161355.43748  21529902.26648
  22318036.367 6  22318034.902 9 117282076.326 6  91388627.021 9  22318034.49248
  24023943.367 5                 126246675.853 5  98374024.38047  24023940.12147
  20588080.211 7  20588078.207 9 108191088.477 7  84304735.251 9  20588077.87949
  19452173.945 7  19452173.496 9 103983011.450 7  80875681.409 9  19452175.109 9
  20965179.359 8  20965178.250 9 111874218.541 8  87013288.017 9  20965179.156 9
  22294770.281 5  22294768.008 9 119387483.033 5  92856931.013 9  22294769.090 9
  20963561.227 7  20963559.359 9 112180254.353 7  87251315.582 9  20963559.961 9
  21290225.438 7  21290227.602 9 113888453.783 7  88579826.715 9  21290228.887 8
  19320136.836 7  19320134.980 8 103313552.232 7  80354910.623 8  19320135.352 8
 19  5 14 14 43  0.0000000  0 12G02G05G13G15G21G29R01R02R08R17R23R24
  22961620.992 6                 120664123.882 6  94023973.40848  22961616.90648
  21153294.750 7  21153292.633 9 111161310.853 7  86619192.913 9  21153292.29748
  21515766.750 6                 113066126.541 6  88103464.83548  21515764.18848
  22295716.383 7  22295714.535 9 117164783.529 7  91297230.059 9  22295714.28948
  24006553.656 5                 126155297.366 5  98302820.38447  24006550.97747
  20587758.281 7  20587756.516 9 108189396.895 7  84303417.137 9  20587756.34049
  19456360.766 7  19456359.789 9 104005393.752 7  80893089.870 9  19456361.988 9
  20944439.742 8  20944439.930 9 111763551.700 8  86927213.832 9  20944440.543 9
  22312974.188 5  22312971.969 9 119484961.216 5  92932747.385 9  22312973.242 9
  20942509.516 8  20942508.113 9 112067601.705 8  87163696.881 9  20942508.945 9
  21305392.992 7  21305394.719 9 113969589.743 7  88642932.447 9  21305396.246 8
  19317817.313 7  19317815.641 8 103301149.575 7  80345264.102 8  19317815.984 8
 19  5 14 14 43 30.0000000  0 12G02G05G13G15G21G29R01R02R08R17R23R24
  22971642.141 6                 120716783.350 6  94065006.74548  22971637.55948
  21162226.789 7  21162224.406 9 111208248.258 7  86655767.511 9  21162224.14548
  21501729.172 6                 112992356.789 6  88045981.93148  21501726.84048
  22273454.758 7  22273453.551 9 117047801.481 7  91206075.246 9  22273453.31648
  23989172.648 5                 126063955.180 5  98231644.68546  23989169.84046
  20587552.438 7  20587550.383 9 108188314.114 7  84302573.400 9  20587549.72349
  19460663.000 7  19460662.859 9 104028395.379 7  80910980.030 9  19460664.664 9
  20923786.891 8  20923786.754 9 111653342.208 8  86841495.369 9  20923787.465 9
  22331210.344 5  22331209.902 9 119582626.081 5  93008708.934 9  22331210.746 9
  20921517.297 7  20921515.438 9 111955268.645 7  87076326.739 9  20921516.352 9
  21320639.773 7  21320641.234 9 114051149.900 7  88706368.120 9  21320642.746 8
  19315621.461 7  19315620.105 8 103289408.270 7  80336131.974 8  19315620.043 8
 19  5 14 14 44  0.0000000  0 12G02G05G13G15G21G29R01R02R08R17R23R24
  22981705.523 6                 120769669.591 6  94106216.78548  22981701.45748
  21171211.664 7  21171208.820 9 111255463.748 7  86692558.809 9  21171208.45349
  21487791.406 6                 112919114.292 6  87988909.88048  21487789.30148
  22251253.875 7  22251252.578 9 116931134.313 7  91115165.783 9  22251251.87948
  23971797.570 5                 125972651.295 5  98160498.83346  23971795.16046
  20587462.453 7  20587460.445 9 108187841.230 7  84302204.915 9  20587460.08249
  19465082.328 7  19465081.926 9 104052015.034 7  80929350.874 9  19465083.469 9
  20903219.641 8  20903219.320 9 111543593.520 8  86756135.310 9  20903220.063 9
  22349484.813 5  22349482.887 9 119680475.782 5  93084814.232 9  22349483.984 9
  20900585.859 8  20900583.566 9 111843259.819 8  86989208.785 9  20900584.277 9
  21335965.445 7  21335967.488 9 114133133.302 7  88770132.960 9  21335969.043 8
  19313549.727 7  19313548.098 8 103278331.009 7  80327516.311 8  19313548.828 8
 19  5 14 14 44 30.0000000  0 12G02G05G13G15G21G29R01R02R08R17R23R24
  22991811.852 6                 120822779.354 6  94147601.00448  22991807.55148
  21180248.680 7  21180246.293 9 111302952.883 7  86729563.328 9  21180245.83648
  21473953.633 6                 112846398.283 6  87932248.07248  21473951.55948
  22229113.359 6  22229111.582 9 116814781.688 6  91024501.427 9  22229111.19148
  23954430.359 5                 125881384.087 5  98089381.56446  23954427.52046
  20587487.883 7  20587485.809 9 108187975.175 7  84302309.288 9  20587485.52349
  19469614.625 7  19469615.266 9 104076247.108 7  80948198.046 9  19469616.715 9
  20882739.367 8  20882738.840 9 111434304.652 8  86671132.887 9  20882739.789 9
  22367790.898 6  22367788.922 9 119778504.286 6  93161058.604 9  22367789.770 9
  20879714.461 8  20879713.117 9 111731575.810 8  86902343.459 9  20879713.473 9
  21351370.211 7  21351370.957 9 114215535.448 7  88834223.508 9  21351372.852 8
  19311602.867 7  19311601.059 8 103267916.161 7  80319415.872 8  19311600.801 8
 19  5 14 14 45  0.0000000  0 12G02G05G13G15G21G29R01R02R08R17R23R24
  23001960.891 6                 120876114.599 6  94189160.90448  23001956.94548
  21189337.234 7  21189335.133 9 111350715.544 7  86766780.985 9  21189334.79348
  21460217.570 6                 112774212.815 6  87875999.67148  21460215.60248
  22207032.820 6  22207030.625 9 116698748.755 6  90934086.173 9  22207030.37948
  23937070.648 5                 125790156.038 5  98018294.78847  23937067.31647
  20587628.867 7  20587626.961 9 108188717.906 7  84302888.032 9  20587626.85549
  19474262.430 7  19474261.715 9 104101091.198 7  80967521.236 9  19474264.063 9
  20862345.555 8  20862344.723 9 111325479.704 8  86586491.288 9  20862345.461 9
  22386131.266 6  22386128.125 9 119876709.993 6  93237440.807 9  22386129.020 9
  20858905.500 8  20858903.871 9 111620222.257 8  86815735.162 9  20858904.512 9
  21366852.898 7  21366854.039 9 114298356.466 7  88898639.847 9  21366855.617 8
  19309778.734 7  19309777.656 8 103258166.532 7  80311832.825 8  19309778.016 8
 19  5 14 14 45 30.0000000  0 12G02G05G13G15G21G29R01R02R08R17R23R24
  23012154.547 6                 120929679.195 6  94230899.53848  23012150.32048
  21198478.758 7  21198476.332 9 111398754.471 7  86804213.920 9  21198475.94548
  21446583.352 6                 112702564.617 6  87820169.92248  21446581.11348
  22185014.531 6  22185012.242 9 116583042.406 6  90843925.404 9  22185011.97348
  23919717.844 5                 125698972.183 5  97947242.46747  23919715.44147
  20587887.141 7  20587884.758 9 108190072.829 7  84303943.814 9  20587884.61749
  19479025.094 7  19479024.281 9 104126548.771 7  80987321.573 9  19479026.305 9
  20842039.617 8  20842039.496 9 111217124.941 8  86502215.388 9  20842040.000 9
  22404502.500 6  22404501.348 9 119975094.268 6  93313961.935 9  22404502.109 9
  20838159.547 8  20838157.855 9 111509206.879 8  86729389.895 9  20838158.953 9
  21382414.063 7  21382414.840 8 114381598.478 7  88963383.616 8  21382416.566 8
  19308082.023 7  19308080.398 8 103249087.987 7  80304771.735 8  19308080.379 8
 19  5 14 14 46  0.0000000  0 12G02G05G13G15G21G29R01R02R08R17R23R24
  23022390.242 6                 120983466.561 6  94272811.75747  23022385.89147
  21207671.305 7  21207668.984 9 111447061.448 7  86841855.723 9  21207668.69948
  21433050.508 6                 112631448.585 6  87764754.85448  21433047.60248
  22163057.492 6  22163056.160 9 116467658.830 6  90754016.158 9  22163055.61348
  23902373.828 5                 125607826.993 5  97876220.27246  23902370.97746
  20588260.375 7  20588258.301 9 108192034.028 7  84305472.016 9  20588257.89549
  19483900.109 7  19483899.574 9 104152610.850 7  81007592.074 9  19483901.703 9
  20821821.547 8  20821820.789 9 111109235.780 8  86418301.623 9  20821821.719 9
  22422907.461 6  22422905.465 9 120073647.323 6  93390614.306 9  22422906.633 9
  20817476.898 8  20817475.098 9 111398526.777 8  86643305.391 9  20817475.633 9
  21398051.781 7  21398053.172 8 114465253.355 7  89028448.521 8  21398054.508 8
  19306508.375 7  19306506.645 8 103240674.792 7  80298228.129 8  19306506.758 8
 19  5 14 14 46 30.0000000  0 12G02G05G13G15G21G29R01R02R08R17R23R24
  23032668.367 6                 121037479.087 6  94314899.41948  23032663.41448
  21216915.000 7  21216912.504 9 111495637.443 7  86879707.156 9  21216912.17248
  21419619.609 6                 112560869.635 6  87709758.29048  21419617.25448
  22141163.477 6  22141161.734 9 116352603.615 6  90664362.773 9  22141161.28548
  23885037.375 5                 125516723.511 5  97805230.57747  23885034.87947
  20588749.352 7  20588746.809 9 108194603.799 7  84307474.431 9  20588746.33649
  19488888.367 7  19488887.965 9 104179277.163 7  81028332.543 9  19488890.219 9
  20801691.258 8  20801690.961 9 111001816.730 8  86334753.497 9  20801691.773 9
  22441343.359 6  22441340.766 9 120172368.450 6  93467397.370 9  22441341.797 9
  20796857.133 8  20796855.512 9 111288187.988 8  86557486.352 9  20796856.230 9
  21413767.414 7  21413768.906 8 114549321.331 7  89093834.709 8  21413770.484 8
  19305059.336 7  19305057.816 8 103232930.789 7  80292205.010 8  19305058.297 8
 19  5 14 14 47  0.0000000  0 12G02G05G13G15G21G29R01R02R08R17R23R24
  23042990.133 6                 121091720.242 6  94357165.24248  23042985.41048
  21226210.094 7  21226207.824 9 111544484.349 7  86917769.679 9  21226207.36748
  21406292.859 6                 112490833.983 6  87655185.07848  21406289.77348
  22119332.656 7  22119331.180 9 116237883.163 7  90574970.241 9  22119330.73048
  23867709.164 5                 125425665.758 5  97734276.51546  23867707.07446
  20589354.734 7  20589352.672 9 108197785.187 7  84309953.423 9  20589352.36349
  19493990.969 7  19493990.168 9 104206548.692 7  81049543.744 9  19493992.184 9
  20781650.227 8  20781649.984 9 110894873.967 8  86251575.822 9  20781650.547 9
  22459808.117 6  22459807.328 9 120271257.846 6  93544311.382 9  22459808.359 9
  20776302.641 8  20776301.586 9 111178197.827 8  86471938.477 9  20776302.574 9
  21429561.359 7  21429562.445 8 114633804.391 7  89159543.744 8  21429563.809 8
  19303737.039 7  19303735.344 8 103225860.727 7  80286706.072 8  19303735.945 8
 19  5 14 14 47 30.0000000  0 12G02G05G13G15G21G29R01R02R08R17R23R24
  23053352.148 6                 121146175.881 6  94399598.18847  23053348.07447
  21235553.891 7  21235551.664 9 111593586.588 7  86956031.164 9  21235551.33248
  21393066.516 6                 112421329.607 6  87601025.83948  21393063.82448
  22097563.531 6  22097561.543 9 116123486.778 6  90485830.228 9  22097561.28548
  23850388.836 5                 125334641.901 5  97663348.87247  23850385.80947
  20590074.016 7  20590071.832 9 108201564.371 7  84312898.240 9  20590071.46549
  19499202.258 7  19499202.707 9 104234408.918 7  81071212.811 9  19499204.578 9
  20761695.539 8  20761695.684 9 110788394.608 8  86168758.570 9  20761696.418 9
  22478306.344 6  22478302.434 9 120370298.833 6  93621343.202 9  22478303.531 9
  20755811.297 8  20755810.789 9 111068545.729 8  86386653.533 9  20755811.586 9
  21445428.656 7  21445429.332 8 114718686.627 7  89225563.248 8  21445431.176 8
  19302540.141 7  19302538.074 8 103219451.843 7  80281721.382 8  19302538.063 8
 19  5 14 14 48  0.0000000  0 12G02G05G13G15G21G29R01R02R08R17R23R24
  23063752.281 6                 121200824.659 6  94442181.62047  23063747.49247
  21244942.039 7  21244940.027 9 111642920.830 7  86994473.437 9  21244939.70748
  21379937.617 6                 112352337.123 6  87547265.48848  21379934.77748
  22075852.555 6  22075850.762 9 116009395.833 6  90396928.216 9  22075850.83648
  23833069.234 5                 125243631.012 5  97592431.32947  23833066.89147
  20590902.828 7  20590900.781 9 108205919.776 7  84316292.052 9  20590900.32849
  19504520.188 7  19504519.770 9 104262833.393 7  81093320.734 9  19504521.320 9
  20741825.398 8  20741823.688 9 110682359.573 8  86086286.906 9  20741824.816 9
  22496823.359 6  22496821.074 9 120469466.438 6  93698473.592 9  22496822.672 9
  20735380.484 8  20735378.746 9 110959213.889 8  86301617.679 9  20735379.453 9
  21461367.492 7  21461368.375 9 114803944.267 7  89291874.725 9  21461369.941 8
  19301460.898 7  19301459.156 8 103213683.378 7  80277234.788 8  19301459.207 8
 19  5 14 14 48 30.0000000  0 12G02G05G13G15G21G29R01R02R08R17R23R24
  23074186.188 6                 121255658.051 6  94484908.92748  23074181.83648
  21254372.398 7  21254370.027 9 111692477.932 7  87033089.365 9  21254370.03548
  21366905.203 6                 112283850.694 6  87493899.45748  21366902.01648
  22054199.227 6  22054197.227 9 115895605.016 6  90308260.076 9  22054197.07048
  23815751.797 5                 125152625.442 5  97521517.92847  23815748.94547
  20591839.281 7  20591837.426 9 108210843.400 7  84320128.644 9  20591837.23449
  19509940.531 7  19509940.941 9 104291811.110 7  81115858.965 9  19509942.406 9
  20722036.703 8  20722035.559 9 110576762.626 8  86004155.980 9  20722036.352 9
  22515365.250 6  22515362.500 9 120568749.345 6  93775693.604 9  22515363.250 9
  20715007.758 8  20715006.738 9 110850197.729 8  86216827.343 9  20715007.742 9
  21477373.828 7  21477374.777 9 114889567.676 7  89358470.699 9  21477376.574 8
  19300500.469 7  19300498.066 8 103208548.040 7  80273240.628 8  19300498.676 8
 19  5 14 14 49  0.0000000  0 12G02G05G13G15G21G29R01R02R08R17R23R24
  23084659.422 6                 121310692.492 6  94527792.87848  23084654.61748
  21263848.023 7  21263846.152 9 111742272.940 7  87071890.675 9  21263845.81648
  21353972.094 6                 112215889.081 6  87440942.36948  21353969.42248
  22032606.352 6  22032604.395 9 115782134.057 6  90219841.177 9  22032604.18848
  23798439.070 5                 125061643.511 5  97450622.95247  23798435.62947
  20592887.719 7  20592885.340 9 108216351.358 7  84324420.555 9  20592884.89149
  19515467.477 7  19515467.207 9 104321356.543 7  81138838.743 9  19515468.813 9
  20702333.445 8  20702332.309 9 110471622.483 8  85922380.336 9  20702332.734 9
  22533929.648 6  22533926.484 9 120668161.316 6  93853014.022 9  22533926.922 9
  20694698.375 8  20694697.180 9 110741517.719 8  86132298.464 9  20694697.926 9
  21493451.750 7  21493452.113 8 114975571.214 7  89425362.313 8  21493453.609 8
  19299661.805 7  19299659.871 8 103204063.911 7  80269752.968 8  19299660.395 8
 19  5 14 14 49 30.0000000  0 12G02G05G13G15G21G29R01R02R08R17R23R24
  23095170.523 6                 121365928.295 6  94570833.74048  23095165.49248
  21273368.742 7  21273366.496 9 111792304.361 7  87110876.198 9  21273366.36748
  21341139.773 6                 112148454.110 6  87388395.65848  21341137.04348
  22011075.172 6  22011073.730 9 115668986.099 6  90131673.964 9  22011073.29348
  23781130.047 5                 124970685.986 5  97379746.97947  23781127.16447
  20594046.922 7  20594044.730 9 108222443.137 7  84329167.392 9  20594044.25049
  19521100.563 7  19521100.219 9 104351467.265 7  81162258.204 9  19521101.961 9
  20682716.016 8  20682714.855 9 110366941.267 8  85840961.643 9  20682715.574 9
  22552516.250 5  22552514.852 9 120767699.706 5  93930432.783 9  22552516.195 9
  20674453.023 8  20674451.793 9 110633177.880 8  86048034.164 9  20674452.527 9
  21509600.188 7  21509600.715 9 115061953.673 7  89492548.649 9  21509602.340 8
  19298944.695 7  19298942.586 8 103200231.933 7  80266772.524 8  19298943.320 8
 19  5 14 14 50  0.0000000  0 12G02G05G13G15G21G29R01R02R08R17R23R24
  23105719.758 6                 121421367.262 6  94614032.93247  23105715.05547
  21282934.313 7  21282932.461 9 111842572.965 7  87150046.548 9  21282932.02748
  21328408.625 6                 112081550.688 6  87336263.14248  21328405.41048
  21989606.297 6  21989604.086 9 115556165.840 6  90043762.117 9  21989603.57848
  23763826.445 5                 124879756.234 5  97308892.65147  23763823.63347
  20595317.852 7  20595315.984 9 108229120.925 7  84334370.852 9  20595315.90249
  19526839.492 7  19526838.816 9 104382142.646 7  81186116.839 9  19526840.609 9
  20663185.367 8  20663184.422 9 110262723.581 8  85759903.484 9  20663185.098 9
  22571128.281 6  22571126.277 9 120867363.606 6  94007949.132 9  22571126.844 9
  20654271.664 8  20654270.234 9 110525184.063 8  85964038.986 9  20654270.949 9
  21525819.305 7  21525819.738 9 115148714.995 7  89560029.658 9  21525821.410 8
  19298351.367 7  19298349.398 8 103197055.740 7  80264302.140 8  19298350.164 8
 19  5 14 14 50 30.0000000  0 12G02G05G13G15G21G29R01R02R08R17R23R24
  23116307.523 6                 121477007.263 6  94657388.76947  23116302.78147
  21292544.234 6  21292542.516 9 111893075.145 6  87189398.932 9  21292541.80147
  21315778.711 6                 112015178.600 6  87284544.65548  21315775.51648
  21968199.805 6  21968197.758 9 115443674.327 6  89956106.428 9  21968197.62548
  23746528.172 5                 124788853.334 5  97238059.30746  23746524.98046
  20596699.320 7  20596697.043 9 108236382.519 7  84340029.244 9  20596697.15648
  19532682.992 7  19532681.602 9 104413378.046 7  81210411.052 9  19532683.496 8
  20643741.703 7  20643740.500 9 110158968.869 7  85679205.367 9  20643741.246 9
  22589763.789 2  22589760.730 8 120967148.186 2  94085559.474 8  22589761.270 8
  20634155.156 7  20634153.809 9 110417538.120 7  85880314.392 9  20634154.727 9
  21542107.758 6  21542109.375 9 115235851.244 6  89627802.271 9  21542110.746 8
  19297879.109 6  19297876.926 8 103194534.070 6  80262340.843 8  19297877.594 8
 19  5 14 14 51  0.0000000  0 12G02G05G13G15G21G29R01R02R08R17R23R24
  23126935.820 6                 121532858.320 6  94700909.04047  23126931.35547
  21302200.734 7  21302198.656 9 111943819.259 7  87228939.776 9  21302197.89848
  21303251.555 7                 111949349.706 7  87233249.42648  21303248.55548
  21946858.266 7  21946856.863 9 115331524.630 7  89868717.063 9  21946856.10948
  23729236.922 5                 124697987.966 5  97167255.09547  23729234.48047
  20598194.859 7  20598192.152 9 108244237.983 7  84346150.370 9  20598191.94149
  19538632.148 7  19538631.586 9 104445181.160 7  81235146.798 9  19538633.445 9
  20624387.016 8  20624386.961 9 110055689.579 8  85598877.077 9  20624387.426 9
  22608418.359 3  22608418.586 8 121067060.803 3  94163269.199 8  22608418.801 8
  20614106.352 8  20614105.781 9 110310253.658 8  85796870.916 9  20614106.609 9
  21558468.711 7  21558469.367 9 115323371.238 7  89695873.377 9  21558471.070 8
  19297532.273 7  19297531.082 8 103192678.212 7  80260897.374 8  19297531.168 8
 19  5 14 14 51 30.0000000  0 12G02G05G13G15G21G29R01R02R08R17R23R24
  23137601.727 6                 121588906.062 6  94744582.58048  23137596.66048
  21311900.648 7  21311898.523 9 111994789.750 7  87268657.028 9  21311898.24248
  21290825.484 6                 111884052.378 6  87182368.39848  21290823.27048
  21925579.492 7  21925577.816 9 115219705.351 7  89781585.204 9  21925577.49248
  23711950.258 5                 124607147.18215  97096462.12357  23711947.93047
  20599799.375 7  20599796.938 9 108252672.417 7  84352722.644 9  20599796.63749
  19544683.523 7  19544683.375 9 104477534.767 7  81260310.735 9  19544685.563 9
  20605118.984 8  20605118.160 9 109952872.673 8  85518908.396 9  20605119.254 9
  22627096.992 4  22627096.375 9 121167083.897 4  94241064.930 9  22627097.637 9
  20594123.000 8  20594122.309 9 110203320.284 8  85713700.526 9  20594122.867 9
  21574898.641 7  21574899.297 9 115411258.222 7  89764229.892 9  21574900.906 8
  19297307.008 7  19297305.492 8 103191474.799 7  80259961.385 8  19297306.184 8
 19  5 14 14 52  0.0000000  0 12G02G05G13G15G21G29R01R02R08R17R23R24
  23148307.313 6                 121645164.362 6  94788420.18147  23148302.31647
  21321645.438 7  21321643.223 9 112045999.159 7  87308560.462 9  21321642.91848
  21278504.195 7                 111819302.406 7  87131913.88848  21278501.46948
  21904366.938 6  21904365.559 9 115108233.552 6  89694724.094 9  21904365.25448
  23694671.633 5                 124516345.938 5  97025707.94147  23694668.89847
  20601517.281 7  20601515.309 9 108261699.925 7  84359757.062 9  20601514.94949
  19550841.672 7  19550841.578 9 104510450.362 7  81285911.767 9  19550843.563 9
  20585941.781 8  20585941.184 9 109850535.153 8  85439312.573 9  20585941.758 9
  22645799.500 4  22645798.250 9 121267228.751 4  94318955.360 9  22645798.723 9
  20574209.719 8  20574208.586 9 110096756.005 8  85630817.209 9  20574209.336 9
  21591398.156 7  21591399.961 9 115499524.586 7  89832881.493 9  21591401.363 8
  19297207.320 7  19297206.152 8 103190938.962 7  80259544.607 8  19297206.570 8
 19  5 14 14 52 30.0000000  0 12G02G05G13G15G21G29R01R02R08R17R23R24
  23159056.117 6                 121701650.002 6  94832434.93747  23159050.97747
  21331438.492 7  21331436.051 9 112097462.616 7  87348661.849 9  21331435.82048
  21266290.555 7                 111755118.633 7  87081900.57748  21266287.94548
  21883224.313 6  21883222.852 9 114997128.834 6  89608149.010 9  21883222.45748
  23677403.492 5                 124425602.007 5  96954998.40747  23677400.89147
  20603350.984 7  20603348.879 9 108271336.539 7  84367266.111 9  20603348.68849
  19557107.141 7  19557106.301 9 104543942.567 7  81311961.259 9  19557108.008 9
  20566855.977 8  20566855.594 9 109748695.260 8  85360103.794 9  20566856.324 9
  22664526.477 4  22664525.168 9 121367509.903 4  94396951.776 9  22664525.957 9
  20554367.805 8  20554366.910 9 109990581.675 8  85548237.190 9  20554367.855 9
  21607971.844 7  21607973.730 9 115588185.276 7  89901839.804 9  21607975.328 8
  19297235.594 7  19297234.504 8 103191088.488 7  80259660.897 8  19297234.094 8
 19  5 14 14 53  0.0000000  0 12G02G05G13G15G21G29R01R02R08R17R23R24
  23169846.828 6                 121758355.905 6  94876621.31547  23169842.03547
  21341278.383 7  21341276.547 9 112149171.839 7  87388954.753 9  21341276.01248
  21254183.750 7                 111691496.008 7  87032324.52048  21254180.63748
  21862151.094 6  21862149.590 9 114886387.174 6  89521856.829 9  21862149.11748
  23660145.383 5                 124334909.213 5  96884328.72047  23660142.52747
  20605299.258 7  20605297.289 9 108281575.087 7  84375244.189 9  20605296.94549
  19563478.234 7  19563478.391 9 104578001.665 7  81338451.674 9  19563480.238 9
  20547864.617 8  20547864.016 9 109647348.968 8  85281278.922 9  20547864.582 9
  22683275.742 4  22683274.977 9 121467917.253 4  94475046.360 9  22683275.578 9
  20534598.977 8  20534598.152 9 109884794.210 8  85465958.064 9  20534598.965 9
  21624618.328 7  21624620.102 9 115677232.288 7  89971098.581 9  21624621.859 8
  19297390.695 7  19297388.457 8 103191917.567 7  80260305.722 8  19297389.367 8
 19  5 14 14 53 30.0000000  0 12G02G05G13G15G21G29R01R02R08R17R23R24
  23180680.656 6                 121815290.960 6  94920986.26647  23180676.55547
  21351166.609 7  21351164.449 9 112201134.493 7  87429445.128 9  21351163.88348
  21242185.898 7                 111628445.770 7  86983194.48548  21242182.85548
  21841148.813 6  21841147.207 9 114776021.159 6  89435857.355 9  21841146.96148
  23642898.734 6                 124244278.729 6  96813707.58747  23642896.33247
  20607363.930 7  20607362.355 9 108292424.559 7  84383698.315 9  20607361.75449
  19569956.664 7  19569956.234 9 104612634.358 7  81365388.216 9  19569958.348 9
  20528966.477 8  20528965.922 9 109546506.769 8  85202846.130 9  20528966.828 9
  22702051.539 4  22702050.641 9 121568457.347 4  94553244.210 9  22702051.441 9
  20514905.164 8  20514903.797 9 109779406.731 8  85383990.046 9  20514904.965 9
  21641338.383 7  21641340.918 8 115766672.087 7  90040662.826 8  21641342.324 8
  19297674.055 7  19297672.566 8 103193436.609 7  80261487.190 8  19297672.891 8
 19  5 14 14 54  0.0000000  0 12G02G05G13G15G21G29R01R02R08R17R23R24
  23191557.625 6                 121872447.004 6  94965523.42447  23191553.28947
  21361101.023 7  21361098.957 9 112253341.183 7  87470125.656 9  21361098.53548
  21230295.281 7                 111565962.369 7  86934506.14248  21230292.21548
  21820218.063 6  21820216.320 9 114666025.410 6  89350146.413 9  21820215.96148
  23625662.805 6                 124153703.420 6  96743129.46247  23625660.28547
  20609543.297 7  20609540.961 9 108303876.433 7  84392621.851 9  20609540.62149
  19576540.969 7  19576541.168 9 104647829.727 7  81392762.396 9  19576543.215 9
  20510162.344 8  20510161.570 9 109446162.462 8  85124800.598 9  20510162.215 9
  22720849.828 5  22720848.180 9 121669119.411 5  94631536.902 9  22720849.484 9
  20495284.688 8  20495283.902 9 109674414.894 8  85302329.744 9  20495284.504 9
  21658130.617 7  21658131.922 9 115856495.016 7  90110525.121 9  21658133.070 8
  19298085.898 7  19298084.492 8 103195638.138 7  80263199.490 8  19298084.582 8
 19  5 14 14 54 30.0000000  0 12G02G05G13G15G21G29R01R02R08R17R23R24
  23202476.984 6                 121929830.079 6  95010237.48247  23202472.76247
  21371083.188 7  21371080.707 9 112305796.216 7  87510999.706 9  21371080.50448
  21218514.352 7                 111504053.358 7  86886265.36548  21218511.56348
  21799357.758 6  21799356.008 9 114556408.508 6  89264730.661 9  21799355.94948
  23608439.063 6                 124063190.354 6  96672599.81947  23608436.29747
  20611838.266 7  20611836.027 9 108315936.133 7  84402019.011 9  20611835.48849
  19583230.773 7  19583230.930 9 104683590.841 7  81420576.594 9  19583232.555 9
  20491452.484 8  20491451.285 9 109346324.343 8  85047148.755 9  20491452.289 9
  22739671.547 5  22739669.449 9 121769906.494 5  94709926.832 9  22739670.180 9
  20475740.563 8  20475739.113 9 109569828.443 8  85220984.737 9  20475740.016 9
  21674993.703 7  21674995.473 8 115946704.689 7  90180688.183 8  21674997.082 8
  19298626.430 7  19298625.074 8 103198528.898 7  80265447.847 8  19298625.391 8
 19  5 14 14 55  0.0000000  0 12G02G05G13G15G21G29R01R02R08R17R23R24
  23213438.609 6                 121987433.851 6  95055123.51547  23213433.93847
  21381110.773 7  21381108.457 9 112358492.400 7  87552061.665 9  21381108.08248
  21206841.664 7                 111442714.570 7  86838468.93348  21206839.13748
  21778570.039 6  21778568.199 9 114447167.502 6  89179607.809 9  21778568.18048
  23591226.141 6                 123972734.839 6  96602115.02947  23591223.17647
  20614247.625 7  20614245.836 9 108328597.422 7  84411884.946 9  20614245.48049
  19590025.422 7  19590025.164 9 104719909.182 7  81448824.196 9  19590026.770 9
  20472837.344 8  20472835.648 9 109246987.663 8  84969886.921 9  20472836.262 9
  22758514.273 5  22758512.180 9 121870809.490 5  94788406.953 9  22758512.965 9
  20456271.109 8  20456269.555 9 109465645.360 8  85139953.467 9  20456270.625 9
  21691928.102 7  21691929.906 8 116037293.373 7  90251146.049 8  21691931.355 8
  19299295.430 7  19299294.012 8 103202103.666 7  80268228.224 8  19299294.043 8
 19  5 14 14 55 30.0000000  0 12G02G05G13G15G21G29R01R02R08R17R23R24
  23224441.922 6                 122045257.853 6  95100181.16247  23224438.28147
  21391184.094 7  21391182.098 9 112411428.056 7  87593310.227 9  21391181.62548
  21195278.086 7                 111381947.311 7  86791117.83848  21195275.27348
  21757854.359 6  21757852.762 9 114338304.908 6  89094779.822 9  21757852.41048
  23574024.117 6                 123882336.672 6  96531674.92347  23574020.80547
  20616771.164 7  20616769.199 9 108341858.907 7  84422218.563 9  20616768.86349
  19596923.234 7  19596922.641 9 104756781.425 7  81477502.612 9  19596924.516 9
  20454315.039 8  20454315.035 9 109148154.308 8  84893016.556 9  20454315.832 9
  22777378.148 4  22777376.652 9 121971825.700 4  94866975.105 9  22777377.781 9
  20436878.063 8  20436876.973 9 109361868.603 8  85059238.229 9  20436877.582 9
  21708933.695 7  21708935.395 9 116128258.932 7  90321897.044 9  21708936.801 8
  19300091.508 7  19300089.895 8 103206362.356 7  80271540.533 8  19300090.117 8
 19  5 14 14 56  0.0000000  0 12G02G05G13G15G21G29R01R02R08R17R23R24
  23235487.359 6                 122103301.287 6  95145409.81647  23235483.48047
  21401302.320 7  21401300.262 9 112464600.863 7  87634743.570 9  21401299.97348
  21183823.188 7                 111321753.054 7  86744213.24248  21183820.55548
  21737211.070 6  21737209.816 9 114229822.858 6  89010248.368 9  21737209.21548
  23556832.578 6                 123791996.984 6  96461280.38547  23556829.50847
  20619408.852 7  20619406.637 9 108355719.702 7  84433019.166 9  20619406.37549
  19603923.883 7  19603923.203 9 104794204.388 7  81506609.363 9  19603925.113 9
  20435888.594 8  20435887.910 9 109049825.194 8  84816538.384 9  20435888.813 9
  22796263.250 5  22796260.875 9 122072951.366 5  94945628.381 9  22796262.336 9
  20417561.594 8  20417560.074 9 109258501.651 8  84978841.720 9  20417561.148 9
  21726010.188 7  21726009.695 8 116219598.341 7  90392938.778 8  21726011.414 8
  19301015.773 7  19301015.066 8 103211305.453 7  80275385.152 8  19301015.090 8
 19  5 14 14 56 30.0000000  0 12G02G05G13G15G21G29R01R02R08R17R23R24
  23246573.211 6                 122161560.873 6  95190806.89847  23246569.58247
  21411465.172 7  21411462.887 9 112518006.276 7  87676358.177 9  21411462.30948
  21172477.539 7                 111262130.486 7  86697754.12348  21172475.51648
  21716639.594 6  21716637.965 9 114121721.072 6  88926013.225 9  21716637.65648
  23539652.156 6                 123701713.359 6  96390929.53047  23539649.28947
  20622159.555 7  20622157.809 9 108370176.118 7  84444283.911 9  20622157.52749
  19611026.398 7  19611026.781 9 104832172.074 7  81536139.797 9  19611028.113 9
  20417556.039 8  20417555.547 9 108951998.937 8  84740451.315 9  20417556.406 9
  22815165.945 5  22815164.980 9 122174180.548 5  95024362.182 9  22815166.105 9
  20398321.555 8  20398320.156 9 109155545.146 8  84898764.447 9  20398321.273 9
  21743152.859 7  21743154.977 9 116311306.817 7  90464267.624 9  21743155.996 8
  19302068.063 7  19302066.879 8 103216930.667 7  80279760.307 8  19302066.617 8
 19  5 14 14 57  0.0000000  0 12G02G05G13G15G21G29R01R02R08R17R23R24
  23257701.047 6                 122220035.646 6  95236371.64647  23257696.83647
  21421671.953 7  21421669.605 9 112571642.129 7  87718152.343 9  21421669.13348
  21161240.609 7                 111203080.579 7  86651741.22148  21161238.75448
  21696141.508 6  21696140.152 9 114014002.015 6  88842076.312 9  21696139.60548
  23522482.945 6                 123611486.325 6  96320622.77547  23522479.90247
  20625023.820 7  20625021.922 9 108385227.181 7  84456012.000 9  20625021.44549
  19618230.008 7  19618229.773 9 104870680.756 7  81566090.995 9  19618231.484 9
  20399318.102 8  20399317.449 9 108854676.906 8  84664756.431 9  20399318.133 9
  22834088.141 5  22834087.848 9 122275509.936 5  95103173.930 9  22834088.699 9
  20379158.711 8  20379158.082 9 109053002.178 8  84819008.816 9  20379158.996 9
  21760365.125 7  21760366.781 8 116403380.980 7  90535880.819 8  21760368.051 8
  19303247.641 7  19303245.547 8 103223237.957 7  80284665.964 8  19303245.996 8
 19  5 14 14 57 30.0000000  0 12G02G05G13G15G21G29R01R02R08R17R23R24
  23268869.695 6                 122278725.458 6  95282103.95947  23268864.92647
  21431922.047 7  21431919.766 9 112625507.109 7  87760125.047 9  21431919.31348
  21150113.414 7                 111144605.546 7  86606176.27148  21150111.33248
  21675716.672 6  21675714.828 9 113906668.318 6  88758439.683 9  21675714.56348
  23505323.461 6                 123521317.628 6  96250361.47347  23505321.35947
  20628001.086 7  20627998.914 9 108400872.023 7  84468202.784 9  20627998.29749
  19625534.773 7  19625534.328 9 104909727.873 7  81596460.974 9  19625536.113 9
  20381174.094 8  20381173.559 9 108757860.725 8  84589454.982 9  20381174.328 9
  22853030.648 5  22853028.285 9 122376936.883 5  95182061.527 9  22853029.227 9
  20360074.250 8  20360073.629 9 108950876.704 8  84739577.912 9  20360074.676 9
  21777644.789 7  21777646.723 8 116495819.181 7  90607777.197 8  21777648.617 8
  19304554.398 7  19304552.297 8 103230227.517 7  80290102.278 8  19304553.379 8
 19  5 14 14 58  0.0000000  0 12G02G05G13G15G21G29R01R02R08R17R23R24
  23280079.133 6                 122337632.534 6  95328005.57847  23280075.02347
  21442215.805 7  21442213.535 9 112679601.843 7  87802276.781 9  21442213.11348
  21139095.969 7                 111086709.550 7  86561062.52848  21139094.24248
  21655366.008 6  21655364.309 9 113799725.330 6  88675107.491 9  21655363.77348
  23488176.992 6                 123431210.422 6  96180148.08247  23488174.07847
  20631091.750 7  20631089.457 9 108417112.794 7  84480857.926 9  20631089.03949
  19632939.969 7  19632939.809 9 104949312.989 7  81627249.400 9  19632941.465 9
  20363126.813 8  20363126.352 9 108661554.262 8  84514549.980 9  20363126.953 9
  22871989.789 5  22871986.805 9 122478461.130 5  95261024.809 9  22871987.375 9
  20341068.930 8  20341067.625 9 108849174.976 8  84660476.585 9  20341068.195 9
  21794994.422 7  21794995.051 8 116588621.834 7  90679957.011 8  21794996.547 8
  19305989.859 7  19305987.742 8 103237902.738 7  80296071.889 8  19305988.129 8
 19  5 14 14 58 30.0000000  0 12G02G05G13G15G21G29R01R02R08R17R23R24
  23291327.938 6                 122396745.318 6  95374067.46647  23291323.76247
  21452550.914 7  21452548.773 9 112733913.710 7  87844597.704 9  21452548.20748
  21128187.453 7                 111029382.718 7  86516392.28948  21128184.71148
  21635088.484 6  21635086.352 9 113693164.431 6  88592073.025 9  21635086.28948
  23471040.109 6                 123341154.449 6  96109974.62547  23471036.96147
  20634292.883 7  20634291.113 9 108433936.803 7  84493967.531 9  20634290.75049
  19640442.227 7  19640442.305 9 104989421.605 7  81658444.991 9  19640444.207 9
  20345172.805 8  20345171.625 9 108565747.749 8  84440033.826 9  20345172.813 9
  22890962.883 5  22890961.770 9 122580068.262 5  95340052.597 9  22890962.340 9
  20322141.227 8  20322139.953 9 108747889.006 8  84581698.629 9  20322140.504 9
  21812407.234 7  21812408.926 8 116681775.222 7  90752409.647 8  21812410.621 8
  19307551.070 7  19307549.613 8 103246252.410 7  80302566.074 8  19307549.969 8
 19  5 14 14 59  0.0000000  0 12G02G05G13G15G21G29R01R02R08R17R23R24
  23302616.859 6                 122456067.660 6  95420292.64747  23302612.30947
  21462927.859 7  21462925.703 9 112788445.376 7  87887089.901 9  21462925.19148
  21117387.789 7                 110972630.774 7  86472170.00948  21117385.30148
  21614884.430 7  21614882.582 9 113586992.432 7  88509341.605 9  21614882.21948
  23453913.992 6                 123251154.681 6  96039844.96447  23453910.96547
  20637606.102 7  20637603.492 9 108451347.709 7  84507534.467 9  20637603.34449
  19648044.320 7  19648044.480 9 105030055.084 7  81690048.807 9  19648046.199 9
  20327312.953 8  20327312.238 9 108470447.295 8  84365911.277 9  20327313.320 9
  22909954.609 5  22909951.824 9 122681759.533 5  95419145.764 9  22909952.391 9
  20303293.078 8  20303292.004 9 108647026.743 8  84503250.213 9  20303292.652 9
  21829888.453 7  21829888.711 8 116775281.292 7  90825136.544 8  21829890.707 8
  19309239.633 7  19309237.863 8 103255281.300 7  80309588.537 8  19309238.457 8
 19  5 14 14 59 30.0000000  0 12G02G05G13G15G21G29R01R02R08R17R23R24
  23313943.938 5                 122515598.273 5  95466680.11647  23313940.30547
  21473346.328 7  21473343.926 9 112843194.724 7  87929751.729 9  21473343.60248
  21106697.719 7                 110916454.536 7  86428396.33648  21106695.81648
  21594754.992 7  21594753.402 9 113481210.960 7  88426914.481 9  21594753.19548
  23436798.094 6                 123161211.655 6  95969759.51847  23436794.93447
  20641030.859 7  20641028.809 9 108469344.089 7  84521557.609 9  20641028.46549
  19655742.922 7  19655742.762 9 105071209.879 7  81722058.091 9  19655744.441 9
  20309548.781 8  20309548.762 9 108375653.558 8  84292182.845 9  20309549.461 9
  22928957.266 5  22928956.441 9 122783531.241 5  95498301.542 9  22928957.129 9
  20284524.289 8  20284522.574 9 108546591.253 8  84425133.736 9  20284523.297 9
  21847433.148 7  21847434.500 8 116869137.328 7  90898135.687 8  21847435.930 8
  19311054.844 7  19311053.406 8 103264988.967 7  80317138.939 8  19311053.527 8
 19  5 14 15  0  0.0000000  0 12G02G05G13G15G21G29R01R02R08R17R23R24
  23325312.992 5                 122575339.691 5  95513231.83047  23325308.66847
  21483806.703 7  21483804.656 9 112898163.145 7  87972584.257 9  21483804.26248
  21096118.055 7                 110860859.037 7  86385075.19048  21096115.75848
  21574701.117 7  21574699.293 9 113375826.555 7  88344796.768 9  21574698.64148
  23419694.086 6                 123071329.646 6  95899721.61347  23419691.19147
  20644567.398 7  20644565.457 9 108487928.304 7  84536038.806 9  20644565.10949
  19663539.758 7  19663539.168 9 105112885.989 7  81754472.854 9  19663540.789 9
  20291880.469 8  20291879.684 9 108281371.637 8  84218852.481 9  20291880.488 9
  22947980.031 5  22947976.785 9 122885384.180 5  95577520.469 9  22947977.266 9
  20265835.758 8  20265834.430 9 108446589.526 8  84347354.622 9  20265835.273 9
  21865045.047 7  21865045.824 8 116963343.897 7  90971407.425 8  21865047.223 8
  19312997.570 7  19312996.121 8 103275379.010 7  80325220.077 8  19312996.746 8
 19  5 14 15  0 30.0000000  0 12G02G05G13G15G21G29R01R02R08R17R23R24
  23336718.703 5                 122635275.572 5  95559935.08547  23336714.09047
  21494304.859 7  21494302.539 9 112953332.119 7  88015573.064 9  21494301.91048
  21085645.750 7                 110805828.582 7  86342194.33148  21085644.03148
  21554719.781 7  21554717.801 9 113270824.375 7  88262976.899 9  21554717.43448
  23402598.445 6                 122981492.546 6  95829718.70547  23402595.71147
  20648212.203 7  20648210.094 9 108507082.720 7  84550964.317 9  20648209.87949
  19671429.883 7  19671429.891 9 105155063.514 7  81787277.591 9  19671431.426 9
  20274304.711 8  20274304.313 9 108187585.226 8  84145907.521 9  20274305.145 9
  22967009.727 5  22967008.801 9 122987298.616 5  95656787.247 9  22967009.797 9
  20247227.172 8  20247225.293 9 108347007.970 8  84269902.313 9  20247226.418 9
  21882717.852 7  21882718.438 8 117057882.284 7  91044937.284 8  21882720.059 8
  19315065.609 7  19315064.621 8 103286434.611 7  80333818.871 8  19315064.441 8
 19  5 14 15  1  0.0000000  0 12G02G05G13G15G21G29R01R02R08R17R23R24
  23348161.078 5                 122695408.134 5  95606791.60947  23348156.73047
  21504841.914 7  21504839.559 9 113008703.436 7  88058719.533 9  21504838.97748
  21075282.859 7                 110751367.970 7  86299757.51048  21075280.55148
  21534812.320 7  21534810.586 9 113166210.695 7  88181459.754 9  21534810.41048
  23385512.156 6                 122891704.869 6  95759754.30147  23385509.67647
  20651966.281 7  20651964.082 9 108526809.198 7  84566335.598 9  20651963.99649
  19679413.789 7  19679413.418 9 105197742.483 7  81820472.353 9  19679415.273 9
  20256823.117 8  20256822.684 9 108094299.391 8  84073351.901 9  20256823.133 9
  22986056.359 5  22986051.781 9 123089274.508 5  95736101.776 9  22986052.434 9
  20228697.516 8  20228696.660 9 108247853.399 8  84192782.107 9  20228697.199 9
  21900453.266 7  21900453.047 8 117152752.739 7  91118725.430 8  21900455.086 8
  19317258.461 7  19317256.473 8 103298159.259 7  80342938.027 8  19317256.969 8
 19  5 14 15  1 30.0000000  0 12G02G05G13G15G21G29R01R02R08R17R23R24
  23359642.039 5                 122755740.193 5  95653803.58847  23359637.40247
  21515417.352 7  21515414.844 9 113064278.748 7  88102024.967 9  21515414.63348
  21065028.555 7                 110697481.657 7  86257768.18748  21065026.24648
  21514980.109 7  21514977.875 9 113061991.236 7  88100249.798 9  21514977.60248
  23368436.664 6                 122801970.259 6  95689831.25647  23368433.82447
  20655829.219 7  20655827.270 9 108547110.295 7  84582154.627 9  20655827.30949
  19687491.617 7  19687491.539 9 105240923.378 7  81854057.491 9  19687492.984 9
  20239435.875 8  20239435.277 9 108001518.445 8  84001188.964 9  20239436.184 9
  23005109.133 5  23005107.285 9 123191312.544 5  95815464.688 9  23005108.180 9
  20210249.188 8  20210247.648 9 108149132.998 8  84115999.579 9  20210248.820 9
  21918248.859 7  21918250.516 9 117247956.763 7  91192773.048 9  21918252.320 8
  19319576.109 7  19319575.098 8 103310556.545 7  80352580.358 8  19319575.645 8
 19  5 14 15  2  0.0000000  0 12G02G05G13G15G21G29R01R02R08R17R23R24
  23371161.188 5                 122816277.883 5  95700975.78547  23371157.11747
  21526032.820 7  21526030.820 9 113120063.340 7  88145493.464 9  21526030.35248
  21054885.320 7                 110644178.568 7  86216233.32648  21054882.76248
  21495224.828 7  21495222.676 9 112958175.112 7  88019354.121 9  21495222.37148
  23351372.203 6                 122712296.986 6  95619955.99547  23351369.54747
  20659802.563 7  20659800.598 9 108567991.910 7  84598426.019 9  20659800.57049
  19695664.492 7  19695663.320 9 105284609.759 7  81888035.789 9  19695665.555 9
  20222145.227 8  20222144.711 9 107909251.584 8  83929425.872 9  20222145.641 9
  23024176.477 4  23024174.074 9 123293416.810 4  95894879.066 9  23024175.016 9
  20191883.320 8  20191882.590 9 108050857.257 8  84039562.899 9  20191883.570 9
  21936110.031 7  21936110.453 8 117343498.333 7  91267083.127 8  21936113.035 8
  19322022.266 7  19322020.258 8 103323633.440 7  80362751.265 8  19322020.488 8
 19  5 14 15  2 30.0000000  0 12G02G05G13G15G21G29R01R02R08R17R23R24
  23382719.969 6                 122877014.585 6  95748303.03647  23382714.61747
  21536686.648 7  21536684.371 9 113176048.942 7  88189118.611 9  21536683.84448
  21044852.203 7                 110591452.633 7  86175148.19948  21044849.38348
  21475545.203 7  21475543.422 9 112854758.290 7  87938769.598 9  21475542.97748
  23334318.609 6                 122622679.597 6  95550124.29047  23334315.46547
  20663885.391 7  20663883.309 9 108589445.850 7  84615143.364 9  20663882.92649
  19703929.625 7  19703929.695 9 105328791.940 7  81922399.718 9  19703931.102 9
  20204949.836 8  20204948.547 9 107817492.397 8  83858057.637 9  20204949.270 9
  23043254.570 5  23043252.090 9 123395578.012 5  95974337.771 9  23043253.129 9
  20173601.664 8  20173599.859 9 107953022.858 8  83963469.490 9  20173600.711 9
  21954032.578 7  21954033.387 9 117439368.801 7  91341649.049 9  21954035.129 8
  19324593.266 7  19324592.363 8 103337383.095 7  80373445.429 8  19324592.383 8
 19  5 14 15  3  0.0000000  0 12G02G05G13G15G21G29R01R02R08R17R23R24
  23394314.117 5                 122937943.736 5  95795780.29147  23394309.48047
  21547376.992 7  21547374.727 9 113232227.612 7  88232894.186 9  21547374.45748
  21034927.609 7                 110539299.177 7  86134509.16148  21034925.08248
  21455940.688 7  21455938.766 9 112751737.400 7  87858493.603 9  21455938.60248
  23317274.789 6                 122533112.748 6  95480331.97247  23317271.73847
  20668075.625 7  20668073.582 9 108611465.467 7  84632301.501 9  20668073.20749
  19712285.656 7  19712285.004 9 105373460.488 7  81957141.921 9  19712286.879 9
  20187849.102 8  20187848.137 9 107726236.440 8  83787080.806 9  20187848.672 9
  23062342.430 5  23062339.484 9 123497786.868 5  96053833.558 9  23062340.074 9
  20155400.617 8  20155399.480 9 107855627.254 8  83887717.362 9  20155400.430 9
  21972015.078 7  21972014.801 9 117535559.736 7  91416464.183 9  21972016.398 8
  19327288.992 7  19327287.609 8 103351799.563 7  80384658.229 8  19327287.664 8
 19  5 14 15  3 30.0000000  0 12G02G05G13G15G21G29R01R02R08R17R23R24
  23405947.203 5                 122999076.146 5  95843415.94046  23405941.99246
  21558106.055 7  21558104.258 9 113288609.896 7  88276828.426 9  21558103.69948
  21025114.563 7                 110487731.688 7  86094326.71748  21025111.94148
  21436414.500 7  21436412.828 9 112649126.172 7  87778536.813 9  21436412.46948
  23300242.398 6                 122443609.175 6  95410588.94047  23300239.61747
  20672375.063 7  20672373.266 9 108634061.073 7  84649908.460 9  20672373.10949
  19720734.484 7  19720734.102 9 105418624.375 7  81992269.395 9  19720735.746 9
  20170844.000 8  20170842.742 9 107635496.854 8  83716505.591 9  20170843.773 9
  23081439.563 5  23081436.832 9 123600052.424 5  96133373.415 9  23081437.301 9
  20137284.914 8  20137283.879 9 107758685.871 8  83812318.522 9  20137284.699 9
  21990058.148 7  21990058.660 8 117632080.237 7  91491535.636 8  21990060.176 8
  19330112.070 7  19330110.309 8 103366894.671 7  80396398.859 8  19330110.766 8
 19  5 14 15  4  0.0000000  0 12G02G05G13G15G21G29R01R02R08R17R23R24
  23417618.086 5                 123060406.242 5  95891205.58147  23417612.67247
  21568872.664 7  21568870.570 9 113345188.668 7  88320915.776 9  21568870.10948
  21015412.133 7                 110436745.926 7  86054597.57348  21015409.43048
  21416965.625 7  21416963.719 9 112546922.282 7  87698897.434 9  21416963.54748
  23283221.438 6                 122354164.195 6  95340891.58847  23283218.41447
  20676783.820 7  20676781.637 9 108657226.402 7  84667959.354 9  20676781.23449
  19729273.914 7  19729274.418 9 105464274.856 7  82027775.326 9  19729275.953 9
  20153935.164 8  20153933.969 9 107545269.721 8  83646328.961 9  20153934.895 9
  23100544.367 5  23100542.754 9 123702366.671 5  96212951.157 9  23100543.293 9
  20119253.180 8  20119252.488 9 107662197.126 8  83737271.729 9  20119253.281 9
  22008161.422 6  22008162.211 9 117728922.510 6  91566857.408 9  22008163.164 8
  19333060.750 7  19333059.613 8 103382663.387 7  80408663.406 8  19333059.383 8
 19  5 14 15  4 30.0000000  0 12G02G05G13G15G21G29R01R02R08R17R23R24
  23429325.336 5                 123121927.652 5  95939144.33646  23429320.02346
  21579675.422 7  21579672.715 9 113401956.625 7  88365150.542 9  21579672.48848
  21005819.813 7                 110386337.131 7  86015318.00048  21005817.05548
  21397593.922 7  21397591.594 9 112445122.112 7  87619572.642 9  21397591.56348
  23266211.086 6                 122264773.222 6  95271236.30347  23266208.55947
  20681298.922 7  20681296.438 9 108680954.064 7  84686448.433 9  20681296.27049
  19737903.086 7  19737903.344 9 105510403.054 7  82063652.822 9  19737905.137 9
  20137121.367 8  20137121.105 9 107455550.239 8  83576547.159 9  20137121.832 9
  23119659.234 4  23119656.215 9 123804720.706 4  96292559.847 9  23119657.359 9
  20101306.156 8  20101305.598 9 107566158.507 8  83662575.040 9  20101306.273 9
  22026323.195 6  22026323.770 8 117826078.234 6  91642422.932 8  22026326.223 8
  19336134.211 7  19336132.941 8 103399099.319 7  80421446.899 8  19336132.945 8
 19  5 14 15  5  0.0000000  0 12G02G05G13G15G21G29R01R02R08R17R23R24
  23441071.078 5                 123183648.561 5  95987238.52647  23441064.39147
  21590515.117 7  21590512.375 9 113458920.442 7  88409537.928 9  21590512.17648
  20996338.695 7                 110336514.964 7  85976495.54848  20996336.28548
  21378300.703 7  21378299.078 9 112343736.521 7  87540570.892 9  21378298.86348
  23249212.922 6                 122175445.964 6  95201630.67347  23249210.05547
  20685922.773 7  20685920.219 9 108705251.494 7  84705381.491 9  20685919.69548
  19746623.383 7  19746623.027 9 105557014.280 7  82099905.995 9  19746624.910 9
  20120405.563 8  20120404.371 9 107366347.995 8  83507167.662 9  20120405.273 9
  23138780.250 4  23138779.211 9 123907120.501 4  96372204.114 9  23138779.887 9
  20083445.969 8  20083444.285 9 107470582.215 8  83588237.932 9  20083445.012 9
  22044548.469 7  22044547.285 8 117923553.522 7  91718236.979 8  22044548.828 8
  19339334.773 7  19339333.051 8 103416211.299 7  80434756.199 8  19339333.500 8
 19  5 14 15  5 30.0000000  0 11G02G05G13G15G21G29R01R02R17R23R24   
  23452854.039 5                 123245569.985 5  96035488.96047  23452847.98847
  21601392.242 7  21601389.613 9 113516080.510 7  88454078.237 9  21601389.51648
  20986970.289 6                 110287282.497 6  85938132.59948  20986967.70348
  21359087.516 7  21359085.637 9 112242770.356 7  87461895.970 9  21359085.26248
  23232227.000 6                 122086185.297 6  95132076.93047  23232223.86347
  20690655.305 7  20690652.656 9 108730120.077 7  84724759.602 9  20690652.36749
  19755432.500 7  19755432.684 9 105604107.415 7  82136533.996 9  19755434.645 9
  20103786.984 8  20103785.828 9 107277666.604 8  83438193.267 9  20103786.727 9
  20065672.391 8  20065671.262 9 107375473.915 8  83514264.814 9  20065672.172 9
  22062828.148 7  22062828.395 8 118021348.352 7  91794299.659 8  22062830.617 8
  19342661.648 7  19342659.586 8 103434001.179 7  80448592.771 8  19342660.074 8
 19  5 14 15  6  0.0000000  0 11G02G05G13G15G21G29R01R02R17R23R24   
  23464675.508 5                 123307689.529 5  96083893.74746  23464668.46146
  21612305.945 6  21612303.508 9 113573433.263 6  88498768.683 9  21612303.11348
  20977713.484 7                 110238639.111 7  85900228.67148  20977711.27748
  21339954.016 7  21339952.371 9 112142223.628 7  87383547.890 9  21339951.70748
  23215254.242 6                 121996989.734 6  95062573.91647  23215250.78947
  20695495.000 7  20695492.676 9 108755555.799 7  84744579.628 9  20695492.59849
  19764331.320 7  19764331.500 9 105651677.395 7  82173532.864 9  19764333.574 9
  20087265.477 8  20087264.457 9 107189504.737 8  83369622.946 9  20087264.945 9
  20047986.852 8  20047985.320 9 107280834.908 8  83440656.710 9  20047986.438 9
  22081166.180 7  22081168.637 8 118119457.743 7  91870606.933 8  22081170.051 8
  19346114.758 7  19346112.762 8 103452466.760 7  80462954.880 8  19346112.996 8
 19  5 14 15  6 30.0000000  0 11G02G05G13G15G21G29R01R02R17R23R24   
  23476531.938 5                 123369997.318 5  96132445.26246  23476525.31646
  21623254.734 7  21623252.227 9 113630967.877 7  88543600.838 9  21623251.86348
  20968567.453 7                 110190576.677 7  85862777.44148  20968565.22348
  21320899.219 7  21320897.355 9 112042089.388 7  87305521.221 9  21320897.10548
  23198291.586 6                 121907851.560 6  94993115.62447  23198287.96547
  20700441.547 7  20700439.258 9 108781548.347 7  84764833.554 9  20700439.01248
  19773317.039 7  19773317.164 9 105699711.423 7  82210892.669 9  19773319.059 9
  20070839.430 8  20070838.492 9 107101854.183 8  83301450.317 9  20070839.348 9
  20030388.383 8  20030386.051 9 107186659.670 8  83367409.311 9  20030386.918 9
  22099562.438 6  22099566.223 8 118217870.155 6  91947149.959 8  22099567.840 8
  19349692.594 7  19349690.906 8 103471598.164 7  80477834.855 8  19349691.262 8
 19  5 14 15  7  0.0000000  0 11G02G05G13G15G21G29R01R02R17R23R24   
  23488425.258 6                 123432498.915 6  96181147.80346  23488418.38346
  21634238.813 7  21634236.418 9 113688688.987 7  88588578.315 9  21634235.82448
  20959533.414 7                 110143102.295 7  85825784.42348  20959530.96148
  21301924.203 7  21301922.703 9 111942376.718 7  87227823.051 9  21301922.38748
  23181341.320 6                 121818777.698 6  94923707.44347  23181337.96147
  20705494.500 7  20705492.113 9 108808102.697 7  84785525.246 9  20705492.05549
  19782391.109 7  19782390.309 9 105748212.545 7  82248615.768 9  19782392.328 9
  20054511.156 8  20054510.441 9 107014722.838 8  83233681.511 9  20054511.070 9
  20012877.578 8  20012876.473 9 107092957.576 8  83294529.912 9  20012877.230 9
  22118018.953 7  22118020.406 8 118316588.983 7  92023931.247 8  22118021.773 8
  19353394.805 7  19353394.184 8 103491401.684 7  80493237.576 8  19353394.492 8
 19  5 14 15  7 30.0000000  0 11G02G05G13G15G21G29R01R02R17R23R24   
  23500354.219 6                 123495183.994 6  96229993.32447  23500347.76247
  21645256.273 7  21645253.199 9 113746585.395 7  88633692.400 9  21645252.99648
  20950609.828 7                 110096207.495 7  85789243.03648  20950606.81348
  21283028.336 7  21283026.676 9 111843077.838 7  87150447.318 9  21283026.53948
  23164401.406 6                 121729759.628 6  94854342.75147  23164397.91047
  20710652.297 7  20710649.965 9 108835207.817 7  84806646.106 9  20710649.53149
  19791548.688 7  19791548.723 9 105797167.801 7  82286692.079 9  19791550.457 9
  20038278.188 8  20038277.352 9 106928101.537 8  83166309.403 9  20038277.965 9
  19995454.313 8  19995453.090 9 106999722.677 8  83222013.886 9  19995454.078 9
  22136528.320 7  22136529.742 8 118415601.839 7  92100941.274 8  22136531.266 8
  19357222.656 7  19357220.957 8 103511867.205 7  80509155.199 8  19357221.445 8
 19  5 14 15  8  0.0000000  0 11G02G05G13G15G21G29R01R02R17R23R24   
  23512318.453 6                 123558058.521 6  96278986.46447  23512312.71147
  21656307.633 7  21656304.945 9 113804661.029 7  88678946.135 9  21656304.34848
  20941797.320 7                 110049899.250 7  85753158.69948  20941795.22348
  21264212.758 7  21264211.148 9 111744201.386 7  87073400.746 9  21264210.98848
  23147474.109 6                 121640804.063 6  94785026.74947  23147470.57047
  20715916.352 7  20715914.043 9 108862868.527 7  84828199.896 9  20715914.04349
  19800791.781 7  19800791.094 9 105846579.976 7  82325123.772 9  19800793.195 9
  20022141.719 8  20022141.691 9 106841997.584 8  83099339.674 9  20022142.078 9
  19978120.523 8  19978119.379 9 106906964.452 8  83149868.615 9  19978120.145 9
  22155092.781 6  22155094.996 8 118514912.472 6  92178182.875 8  22155096.684 8
  19361174.375 7  19361173.051 8 103533000.613 7  80525592.284 8  19361173.180 8
 19  5 14 15  8 30.0000000  0 11G02G05G13G15G21G29R01R02R17R23R24   
  23524320.250 6                 123621119.933 6  96328125.22147  23524313.38347
  21667392.313 7  21667389.352 9 113862913.190 7  88724337.423 9  21667389.15248
  20933096.719 7                 110004176.576 7  85717530.65048  20933094.21948
  21245477.391 7  21245475.680 9 111645747.880 7  86996683.750 9  21245475.36348
  23130558.289 6                 121551910.652 6  94715759.18647  23130555.05147
  20721284.789 7  20721282.516 9 108891081.197 7  84850183.779 9  20721282.14148
  19810120.445 7  19810119.867 9 105896444.267 7  82363907.117 9  19810121.809 9
  20006103.477 8  20006102.418 9 106756410.106 8  83032771.656 9  20006103.344 9
  19960875.180 8  19960874.793 9 106814684.632 8  83078095.430 9  19960875.297 9
  22173713.992 7  22173714.438 8 118614516.406 7  92255652.545 8  22173716.172 8
  19365251.313 7  19365249.426 8 103554799.896 7  80542547.266 8  19365249.797 8
 19  5 14 15  9  0.0000000  0 11G02G05G13G15G21G29R01R02R17R23R24   
  23536354.578 6                 123684364.128 6  96377406.42947  23536348.64547
  21678510.016 7  21678507.449 9 113921336.792 7  88769862.296 9  21678506.96948
  20924507.117 7                 109959037.283 7  85682357.18548  20924504.14548
  21226823.000 7  21226821.000 9 111547716.175 7  86920295.423 9  21226820.61748
  23113653.148 6                 121463076.742 6  94646537.98247  23113649.97347
  20726757.719 7  20726755.496 9 108919841.455 7  84872594.364 9  20726755.16849
  19819532.086 7  19819531.719 9 105946753.947 7  82403036.864 9  19819533.906 9
  19990160.344 8  19990159.598 9 106671336.578 8  82966603.372 9  19990160.172 9
  19943720.898 8  19943718.906 9 106722883.288 8  83006694.386 9  19943719.824 9
  22192387.656 6  22192388.016 8 118714408.028 6  92333346.005 8  22192390.500 8
  19369451.703 7  19369449.699 8 103577261.000 7  80560017.003 8  19369450.383 8
 19  5 14 15  9 30.0000000  0 11G02G05G13G15G21G29R01R02R17R23R24   
  23548423.828 6                 123747790.084 6  96426829.20647  23548418.73847
  21689660.211 7  21689657.340 9 113979930.054 7  88815519.365 9  21689656.79348
  20916028.922 7                 109914482.258 7  85647639.00248  20916025.94948
  21208248.609 7  21208247.004 9 111450108.706 7  86844237.670 9  21208246.68848
  23096760.563 6                 121374303.467 6  94577364.02347  23096757.05147
  20732335.016 7  20732332.309 9 108949147.967 7  84895430.593 9  20732332.05949
  19829025.469 7  19829026.113 9 105997505.669 7  82442510.432 9  19829027.926 9
  19974314.148 8  19974313.066 9 106586778.282 8  82900835.825 9  19974314.059 9
  19926654.883 8  19926653.879 9 106631563.896 8  82935668.197 9  19926654.488 9
  22211113.484 6  22211115.555 8 118814584.476 6  92411261.077 8  22211116.656 8
  19373776.156 7  19373774.035 8 103600383.394 7  80578001.082 8  19373774.637 8
 19  5 14 15 10  0.0000000  0 11G02G05G13G15G21G29R01R02R17R23R24   
  23560530.188 5                 123811411.811 5  96476404.57847  23560525.85547
  21700844.430 7  21700841.711 9 114038705.487 7  88861318.404 9  21700841.37548
  20907664.320 7                 109870526.558 7  85613387.82248  20907661.24248
  21189758.508 7  21189756.953 9 111352941.747 7  86768523.175 9  21189756.44148
  23079881.680 6                 121285606.160 6  94508249.27147  23079878.19147
  20738017.734 7  20738015.656 9 108979012.922 7  84918701.973 9  20738015.23049
  19838604.688 7  19838605.344 9 106048710.854 7  82482336.678 9  19838606.496 9
  19958567.438 8  19958566.480 9 106502750.311 8  82835480.751 9  19958567.492 9
  19909683.609 8  19909681.813 9 106540744.497 8  82865030.892 9  19909682.832 9
  22229896.375 6  22229898.051 8 118915057.781 6  92489406.902 8  22229898.777 8
  19378226.055 7  19378224.309 8 103624181.435 7  80596510.664 8  19378224.781 8
 19  5 14 15 10 30.0000000  0 11G02G05G13G15G21G29R01R02R17R23R24   
  23572672.992 5                 123875224.022 5  96526128.39647  23572669.02047
  21712062.961 7  21712060.188 9 114097657.232 7  88907254.817 9  21712059.77348
  20899413.398 6                 109827166.800 6  85579601.01548  20899410.38348
  21171351.422 7  21171350.262 9 111256213.158 7  86693150.253 9  21171349.97348
  23063016.914 6                 121196980.998 6  94439190.72348  23063013.83248
  20743805.953 7  20743803.805 9 109009430.464 7  84942403.950 9  20743803.54349
  19848267.633 7  19848267.184 9 106100361.485 7  82522509.390 9  19848269.199 9
  19942919.242 8  19942918.098 9 106419249.416 8  82770535.636 9  19942918.570 9
  19892805.289 8  19892803.730 9 106450424.013 8  82794781.636 9  19892804.809 9
  22248732.664 6  22248734.684 8 119015820.612 6  92567777.986 8  22248735.691 8
  19382802.109 7  19382799.633 8 103648649.931 7  80615541.704 8  19382800.457 8
 19  5 14 15 11  0.0000000  0 11G02G05G13G15G21G29R01R02R17R23R24   
  23584853.469 4                 123939233.143 4  96576005.57447  23584850.01647
  21723315.797 7  21723312.930 9 114156790.874 7  88953332.977 9  21723312.80948
  20891276.992 7                 109784410.831 7  85546284.69748  20891274.22348
  21153030.195 7  21153028.086 9 111159932.439 7  86618126.337 9  21153027.82048
  23046168.000 6                 121108436.441 6  94370194.98947  23046164.79347
  20749700.477 7  20749698.719 9 109040406.464 7  84966541.079 9  20749698.28549
  19858013.828 7  19858013.066 9 106152461.693 7  82563031.774 9  19858015.438 9
  19927371.492 8  19927370.750 9 106336283.513 8  82706006.610 9  19927371.379 9
  19876021.539 8  19876020.711 9 106360613.068 8  82724928.693 9  19876021.305 9
  22267624.953 6  22267625.766 8 119116877.974 6  92646378.200 8  22267627.824 8
  19387504.250 7  19387502.375 8 103673795.722 7  80635099.532 8  19387502.988 8
 19  5 14 15 11 30.0000000  0 11G02G05G13G15G21G29R01R02R17R23R24   
  23597069.891 5                 124003430.322 5  96626029.30047  23597065.77047
  21734600.844 7  21734598.496 9 114216096.236 7  88999544.940 9  21734598.19948
  20883253.898 7                 109742251.125 7  85513432.99148  20883251.07448
  21134792.672 7  21134790.969 9 111064093.354 7  86543446.542 9  21134790.75848
  23029331.922 6                 121019964.989 6  94301256.21847  23029328.46947
  20755699.383 7  20755697.094 9 109071930.982 7  84991105.626 9  20755696.71549
  19867841.406 7  19867841.680 9 106204999.577 7  82603894.567 9  19867843.223 9
  19911922.711 8  19911921.715 9 106253844.939 8  82641887.745 9  19911922.480 9
  19859332.188 8  19859331.316 9 106271306.692 8  82655468.181 9  19859332.195 9
  22286568.641 7  22286570.793 8 119218218.269 7  92725198.387 8  22286572.430 8
  19392331.828 7  19392329.930 8 103699609.836 7  80655177.163 8  19392330.684 8
 19  5 14 15 12  0.0000000  0 11G02G05G13G15G21G29R01R02R17R23R24   
  23609321.023 5                 124067808.938 5  96676194.46347  23609316.85547
  21745918.055 6  21745915.691 9 114275566.108 6  89045885.093 9  21745915.54748
  20875343.555 7                 109700682.563 7  85481041.90948  20875340.86748
  21116638.313 7  21116636.305 9 110968692.126 7  86469107.933 9  21116636.16848
  23012509.445 6                 120931561.961 6  94232370.76547  23012506.08647
  20761801.266 7  20761798.977 9 109103996.465 7  85016091.710 9  20761798.60549
  19877750.086 7  19877750.496 9 106257965.786 7  82645090.512 9  19877752.133 9
  19896570.477 8  19896570.625 9 106171928.832 8  82578175.229 9  19896570.945 9
  19842737.406 8  19842735.777 9 106182502.168 8  82586398.005 9  19842736.480 9
  22305565.172 7  22305565.813 8 119319832.709 7  92804231.828 8  22305568.184 8
  19397283.492 7  19397281.273 8 103726085.564 7  80675769.384 8  19397281.531 8
 19  5 14 15 12 30.0000000  0 11G02G05G13G15G21G29R01R02R17R23R24   
  23621606.289 5                 124132370.543 5  96726502.18147  23621602.23847
  21757266.203 7  21757263.695 9 114335201.025 7  89092353.862 9  21757263.14548
  20867546.375 7                 109659707.775 7  85449113.51748  20867543.08248
  21098568.211 7  21098566.059 9 110873733.544 7  86395114.240 9  21098565.86348
  22995700.359 6                 120843230.436 6  94163541.02948  22995697.39148
  20768006.305 7  20768004.039 9 109136603.969 7  85041500.146 9  20768003.53549
  19887738.898 7  19887738.902 9 106311359.658 7  82686619.073 9  19887740.566 9
  19881318.703 8  19881317.727 9 106090538.224 8  82514871.438 9  19881318.699 9
  19826237.195 8  19826236.148 9 106094205.268 8  82517722.645 9  19826236.676 9
  22324612.148 7  22324614.398 8 119421721.283 7  92883478.487 8  22324614.730 8
  19402357.695 7  19402356.293 8 103753224.625 7  80696877.542 8  19402356.715 8
 19  5 14 15 13  0.0000000  0 11G02G05G13G15G21G29R01R02R17R23R24   
  23633929.109 5                 124197124.656 5  96776959.90147  23633924.99247
  21768647.164 6  21768644.926 9 114395009.706 6  89138958.021 9  21768644.39848
  20859864.031 7                 109619338.117 7  85417656.64948  20859861.65248
  21080584.969 7  21080582.516 9 110779230.023 7  86321475.145 9  21080582.09448
  22978906.906 6                 120754981.869 6  94094775.93248  22978904.02048
  20774315.602 7  20774313.508 9 109169761.632 7  85067337.272 9  20774313.21549
  19897808.461 7  19897808.289 9 106365187.995 7  82728485.561 9  19897810.152 9
  19866166.789 8  19866165.824 9 106009684.400 8  82451985.148 9  19866166.707 9
  19809833.797 8  19809832.738 9 106006429.893 8  82449452.917 9  19809833.555 9
  22343712.141 7  22343713.422 9 119523891.687 7  92962944.379 9  22343714.406 8
  19407558.578 7  19407556.949 8 103781036.902 7  80718509.298 8  19407557.484 8
 19  5 14 15 13 30.0000000  0 11G02G05G13G15G21G29R01R02R17R23R24   
  23646285.664 5                 124262061.651 5  96827560.17847  23646281.87947
  21780059.492 6  21780057.148 9 114454981.360 6  89185689.172 9  21780056.94948
  20852295.633 7                 109579565.646 7  85386665.12448  20852293.43048
  21062686.766 7  21062684.430 9 110685174.343 7  86248185.013 9  21062684.13348
  22962128.180 6                 120666807.860 6  94026068.93647  22962125.29347
  20780728.359 7  20780726.160 9 109203458.835 7  85093594.820 9  20780725.88748
  19907957.742 7  19907957.273 9 106419438.332 7  82770680.262 9  19907959.027 9
  19851113.898 8  19851113.148 9 105929358.485 8  82389509.443 9  19851113.629 9
  19793527.031 8  19793525.297 9 105919170.277 8  82381584.335 9  19793526.262 9
  22362863.055 7  22362863.406 8 119626331.974 7  93042620.115 8  22362865.168 8
  19412883.398 7  19412882.809 8 103809512.175 7  80740656.732 8  19412882.855 8
 19  5 14 15 14  0.0000000  0 11G02G05G13G15G21G29R01R02R17R23R24   
  23658679.125 5                 124327190.919 5  96878310.26647  23658675.41047
  21791504.508 7  21791502.289 9 114515125.186 7  89232554.489 9  21791502.06648
  20844843.477 7                 109540401.157 7  85356147.35148  20844840.39148
  21044876.047 7  21044874.211 9 110591578.683 7  86175253.343 9  21044873.64848
  22945365.664 6                 120578720.061 6  93957429.11348  22945362.50048
  20787245.125 7  20787242.598 9 109237704.661 7  85120279.875 9  20787242.37148
  19918186.102 7  19918186.559 9 106474118.182 7  82813209.039 9  19918188.160 9
  19836162.367 8  19836160.566 9 105849572.313 8  82327453.555 9  19836161.598 9
  19777319.469 8  19777318.227 9 105832440.419 8  82314127.783 9  19777319.035 9
  22382064.969 7  22382066.246 9 119729050.203 7  93122512.051 9  22382067.887 8
  19418334.711 7  19418332.824 8 103838660.553 7  80763327.682 8  19418333.664 8
 19  5 14 15 14 30.0000000  0 11G02G05G13G15G21G29R01R02R17R23R24   
  23671109.359 5                 124392506.570 5  96929205.55947  23671105.02747
  21802980.789 7  21802978.672 9 114575433.919 7  89279548.304 9  21802978.52748
  20837505.273 7                 109501839.511 7  85326099.33048  20837502.27748
  21027152.344 7  21027149.961 9 110498440.826 7  86102678.401 9  21027149.49648
  22928618.547 6                 120490714.022 6  93888852.99448  22928615.68048
  20793865.000 7  20793862.113 9 109272491.183 7  85147386.244 9  20793861.94948
  19928493.641 7  19928492.957 9 106529218.292 7  82856064.673 9  19928495.055 9
  19821310.242 8  19821309.684 9 105770320.700 8  82265813.428 9  19821310.047 9
  19761211.117 8  19761209.746 9 105746238.126 8  82247081.561 9  19761210.480 9
  22401317.164 7  22401317.957 8 119832037.757 7  93202613.451 8  22401320.078 8
  19423910.414 7  19423909.398 8 103868475.718 7  80786517.239 8  19423908.777 8
 19  5 14 15 15  0.0000000  0 11G02G05G13G15G21G29R01R02R17R23R24   
  23683573.977 5                 124458011.642 5  96980248.50747  23683570.17647
  21814489.250 7  21814487.121 9 114635910.222 7  89326672.680 9  21814486.68048
  20830282.516 7                 109463885.422 7  85296524.73448  20830279.79748
  21009516.969 7  21009514.777 9 110405766.269 7  86030464.470 9  21009514.48848
  22911888.406 6                 120402794.838 6  93820344.56248  22911885.09448
  20800587.641 7  20800585.719 9 109307821.269 7  85174916.180 9  20800585.26648
  19938880.633 7  19938880.285 9 106584739.694 7  82899247.988 9  19938881.813 9
  19806559.703 8  19806559.156 9 105691608.469 8  82204592.815 9  19806559.762 9
  19745201.594 8  19745200.176 9 105660570.714 8  82180451.360 9  19745200.906 9
  22420618.945 7  22420620.867 8 119935296.435 7  93282925.791 8  22420622.207 8
  19429611.359 7  19429609.637 8 103898961.073 7  80810228.060 8  19429610.156 8
 19  5 14 15 15 30.0000000  0 11G02G05G13G15G21G29R01R02R17R23R24   
  23696076.063 5                 124523708.785 5  97031441.08147  23696071.88747
  21826029.766 7  21826027.215 9 114696555.772 7  89373928.948 9  21826026.98048
  20823176.742 7                 109426542.854 7  85267426.64148  20823173.67248
  20991970.844 7  20991968.500 9 110313560.555 7  85958615.870 9  20991968.22348
  22895175.266 6                 120314967.074 6  93751907.35848  22895171.80148
  20807414.938 7  20807412.238 9 109343696.559 7  85202870.938 9  20807411.93048
  19949345.906 7  19949345.375 9 106640682.733 7  82942759.242 9  19949347.563 9
  19791910.820 8  19791909.672 9 105613439.832 8  82143795.001 9  19791910.551 9
  19729293.711 8  19729292.828 9 105575445.131 8  82114242.579 9  19729293.688 9
  22439973.883 6  22439974.516 8 120038826.847 6  93363449.433 8  22439976.344 8
  19435437.969 7  19435435.980 8 103930119.221 7  80834462.161 8  19435437.148 8
 19  5 14 15 16  0.0000000  0 11G02G05G13G15G21G29R01R02R17R23R24   
  23708612.688 5                 124589589.596 5  97082776.77047  23708608.91047
  21837600.961 6  21837598.957 9 114757361.230 6  89421309.813 9  21837598.52048
  20816185.672 7                 109389804.613 7  85238799.44648  20816182.67648
  20974512.797 7  20974510.656 9 110221818.134 7  85887128.283 9  20974510.20748
  22878478.266 6                 120227223.781 6  93683535.98147  22878474.98447
  20814343.461 7  20814341.648 9 109380107.217 7  85231242.878 9  20814341.35549
  19959887.648 7  19959887.113 9 106697035.905 7  82986589.484 9  19959889.082 9
  19777362.492 8  19777361.230 9 105535807.636 8  82083414.420 9  19777362.066 9
  19713486.453 8  19713485.164 9 105490856.795 8  82048451.659 9  19713485.926 9
  22459378.953 7  22459376.941 8 120142618.162 7  93444176.011 8  22459378.168 8
  19441389.000 7  19441387.480 8 103961941.205 7  80859212.578 8  19441387.848 8
 19  5 14 15 16 30.0000000  0 11G02G05G13G15G21G29R01R02R17R23R24   
  23721183.461 5                 124655649.348 5  97134251.86647  23721179.28147
  21849200.969 6  21849198.539 9 114818321.269 6  89468811.129 9  21849198.33248
  20809309.047 7                 109353667.477 7  85210640.65648  20809305.92648
  20957142.703 7  20957140.871 9 110130537.226 7  85816000.320 9  20957140.36748
  22861796.641 6                 120139562.435 6  93615228.47247  22861793.48847
  20821373.242 7  20821370.852 9 109417047.901 7  85260027.810 9  20821370.55949
  19970505.211 7  19970504.859 9 106753792.231 7  83030733.289 9  19970506.941 9
  19762914.234 8  19762912.711 9 105458708.487 8  82023448.436 9  19762913.605 9
  19697779.336 8  19697778.031 9 105406805.154 8  81983078.165 9  19697778.855 9
  22478825.766 6  22478827.676 8 120246664.213 6  93525100.771 8  22478828.984 8
  19447463.414 7  19447461.281 8 103994422.503 7  80884475.801 8  19447461.773 8
 19  5 14 15 17  0.0000000  0 11G02G05G13G15G21G29R01R02R17R23R24   
  23733790.328 5                 124721894.096 5  97185871.14547  23733785.77047
  21860831.766 7  21860829.605 9 114879440.625 7  89516436.597 9  21860829.41448
  20802548.023 7                 109318138.502 7  85182955.75348  20802545.05148
  20939861.922 7  20939860.047 9 110039726.137 7  85745238.450 9  20939859.48048
  22845132.281 6                 120051990.898 6  93546990.91947  22845129.28547
  20828504.344 7  20828502.344 9 109454523.187 7  85289229.326 9  20828501.69148
  19981198.813 7  19981198.172 9 106810954.876 7  83075193.127 9  19981200.117 9
  19748566.930 8  19748566.395 9 105382149.975 8  81963902.945 9  19748567.406 9
  19682174.359 8  19682173.684 9 105323300.224 8  81918129.891 9  19682174.359 9
  22498325.508 6  22498326.375 8 120350968.272 6  93606226.099 8  22498328.645 8
  19453661.164 7  19453659.781 8 104027568.664 7  80910256.134 8  19453660.668 8
 19  5 14 15 17 30.0000000  0 11G02G05G13G15G21G29R01R02R17R23R24   
  23746429.953 5                 124788320.806 5  97237632.18646  23746425.93046
  21872492.289 7  21872489.602 9 114940715.695 7  89564183.407 9  21872489.44948
  20795902.516 7                 109283216.026 7  85155743.44748  20795899.57048
  20922670.289 7  20922668.309 9 109949384.838 7  85674842.643 9  20922667.96948
  22828484.930 6                 119964507.752 6  93478822.25047  22828481.45347
  20835736.656 7  20835734.520 9 109492529.072 7  85318844.289 9  20835734.23049
  19991967.039 7  19991967.027 9 106868518.228 7  83119964.614 9  19991968.988 9
  19734320.781 8  19734319.938 9 105306130.208 8  81904776.479 9  19734320.789 9
  19666671.641 8  19666670.395 9 105240343.080 8  81853607.673 9  19666671.199 9
  22517871.023 5  22517872.422 8 120455525.604 5  93687548.375 8  22517874.555 8
  19459983.828 7  19459982.559 8 104061376.419 7  80936551.045 8  19459982.852 8
 19  5 14 15 18  0.0000000  0 11G02G05G13G15G21G29R01R02R17R23R24   
  23759106.000 5                 124854929.746 5  97289535.24646  23759101.08246
  21884182.500 7  21884179.715 9 115002146.610 7  89612051.647 9  21884179.18848
  20789372.672 7                 109248901.773 7  85129005.08148  20789369.81348
  20905569.164 7  20905567.203 9 109859516.733 7  85604815.558 9  20905566.82848
  22811854.953 6                 119877115.020 6  93410724.05347  22811851.52747
  20843069.906 7  20843067.941 9 109531065.179 7  85348872.409 9  20843067.59448
  20002810.047 7  20002809.367 9 106926480.503 7  83165046.386 9  20002811.543 9
  19720176.563 8  19720175.063 9 105230651.138 8  81846070.546 9  19720175.754 9
  19651272.625 8  19651271.098 9 105157938.371 8  81789515.123 9  19651272.059 9
  22537463.359 6  22537463.652 8 120560334.999 6  93769066.847 8  22537466.074 8
  19466430.086 7  19466428.371 8 104095846.425 7  80963361.036 8  19466428.617 8
 19  5 14 15 18 30.0000000  0 11G02G05G13G15G21G29R01R02R17R23R24   
  23771815.359 5                 124921721.710 5  97341580.95247  23771811.59447
  21895901.773 7  21895899.563 9 115063733.242 7  89660041.215 9  21895899.07848
  20782958.820 7                 109215197.707 7  85102742.18948  20782956.00448
  20888558.320 7  20888556.348 9 109770125.131 7  85535159.780 9  20888556.05948
  22795241.836 6                 119789815.704 6  93342698.62447  22795239.04347
  20850503.922 7  20850501.453 9 109570130.760 7  85379313.120 9  20850501.33649
  20013727.422 7  20013727.016 9 106984839.852 7  83210436.993 9  20013728.773 9
  19706132.641 8  19706132.211 9 105155714.934 8  81787786.852 9  19706132.867 9
  19635977.383 8  19635976.039 9 105076090.910 8  81725855.989 9  19635976.676 9
  22557105.359 6  22557104.816 8 120665395.271 6  93850780.290 8  22557106.633 8
  19472999.602 7  19472997.680 8 104130979.132 7  80990686.470 8  19472998.109 8
 19  5 14 15 19  0.0000000  0 11G02G05G13G15G21G29R01R02R17R23R24   
  23784560.523 5                 124988699.137 5  97393771.14647  23784557.27347
  21907651.211 7  21907648.707 9 115125476.980 7  89708153.199 9  21907648.34848
  20776662.016 7                 109182107.101 7  85076957.30448  20776658.93848
  20871639.594 7  20871637.406 9 109681215.448 7  85465879.513 9  20871637.03548
  22778648.383 6                 119702613.629 6  93274748.97347  22778644.75847
  20858038.625 7  20858036.813 9 109609727.261 7  85410167.516 9  20858036.50049
  20024718.672 7  20024719.078 9 107043596.137 7  83256136.323 9  20024721.199 9
  19692192.734 8  19692192.043 9 105081325.136 8  81729928.127 9  19692192.754 9
  19620787.664 8  19620786.605 9 104994807.104 8  81662635.260 9  19620787.336 9
  22576792.773 7  22576790.707 8 120770706.474 7  93932689.065 8  22576793.086 8
  19479693.195 7  19479691.652 8 104166776.337 7  81018528.729 8  19479692.441 8
 19  5 14 15 19 30.0000000  0 11G02G05G13G15G21G29R01R02R17R23R24   
  23797340.320 5                 125055857.184 5  97446102.10447  23797336.96547
  21919429.305 7  21919426.883 9 115187372.647 7  89756383.575 9  21919426.84848
  20770480.828 7                 109149626.622 7  85051647.85648  20770478.14548
  20854812.055 7  20854809.820 9 109592785.726 7  85396973.250 9  20854809.59448
  22762071.813 6                 119615506.299 6  93206873.14747  22762068.97747
  20865674.219 7  20865672.145 9 109649849.572 7  85441431.642 9  20865671.80149
  20035782.648 7  20035783.340 9 107102741.948 7  83302138.620 9  20035784.984 9
  19678353.688 8  19678353.316 9 105007478.137 8  81672491.588 9  19678353.926 9
  19605703.180 8  19605702.129 9 104914086.297 8  81599852.410 9  19605702.762 9
  22596524.047 7  22596524.266 8 120876262.139 7  94014787.930 8  22596525.926 8
  19486511.273 7  19486510.184 8 104203233.690 7  81046884.437 8  19486510.309 8
 19  5 14 15 20  0.0000000  0 11G02G05G13G15G21G29R01R02R17R23R24   
  23810154.398 5                 125123191.369 5  97498570.29847  23810149.69947
  21931235.688 7  21931233.559 9 115249414.783 7  89804728.093 9  21931232.87948
  20764415.875 7                 109117752.845 7  85026811.15548  20764413.17248
  20838075.203 7  20838073.527 9 109504834.011 7  85328439.458 9  20838073.16448
  22745513.484 6                 119528491.189 6  93139069.19448  22745510.26648
  20873407.797 7  20873405.664 9 109690491.232 7  85473100.460 9  20873405.42649
  20046919.367 7  20046919.621 9 107162270.313 7  83348438.451 9  20046921.527 9
  19664616.250 8  19664615.074 9 104934171.037 8  81615474.975 9  19664616.059 9
  19590723.500 8  19590722.063 9 104833927.880 8  81537506.981 9  19590722.922 9
  22616301.750 7  22616301.738 8 120982055.265 7  94097071.460 8  22616302.246 8
  19493452.094 7  19493450.453 8 104240345.509 7  81075749.172 8  19493450.941 8
 19  5 14 15 20 30.0000000  0 11G02G05G13G15G21G29R01R02R17R23R24   
  23823001.867 5                 125190707.350 5  97551180.16447  23822997.51247
  21943070.820 7  21943068.016 9 115311608.618 7  89853190.806 9  21943067.60548
  20758467.094 7                 109086492.713 7  85002452.62548  20758464.63348
  20821431.070 7  20821428.906 9 109417368.901 7  85260284.842 9  20821428.78948
  22728974.242 6                 119441575.604 6  93071342.78147  22728970.77347
  20881241.336 7  20881238.965 9 109731656.527 7  85505177.310 9  20881238.90249
  20058127.508 7  20058127.875 9 107222184.660 7  83395038.500 9  20058129.707 9
  19650981.195 8  19650979.895 9 104861410.531 8  81558883.495 9  19650980.992 9
  19575852.039 8  19575850.789 9 104754341.966 8  81475606.832 9  19575851.078 9
  22636123.438 7  22636123.031 8 121088090.042 7  94179542.979 8  22636125.262 8
  19500515.547 7  19500514.211 8 104278117.933 7  81105127.715 8  19500514.340 8
 19  5 14 15 21  0.0000000  0 11G02G05G13G15G21G29R01R02R17R23R24   
  23835884.023 5                 125258402.806 5  97603929.85147  23835879.44547
  21954934.227 7  21954931.758 9 115373950.679 7  89901769.021 9  21954931.26248
  20752635.016 7                 109055844.550 7  84978570.95548  20752632.43848
  20804879.648 7  20804877.559 9 109330390.249 7  85192509.281 9  20804877.17648
  22712453.242 6                 119354758.964 6  93003693.45848  22712450.06348
  20889173.625 7  20889171.484 9 109773342.304 7  85537659.724 9  20889171.39149
  20069406.820 7  20069407.695 9 107282479.547 7  83441934.524 9  20069409.313 9
  19637447.922 8  19637446.977 9 104789195.344 8  81502716.143 9  19637447.617 9
  19561086.031 8  19561084.223 9 104675329.815 8  81414152.940 9  19561085.328 9
  22655989.102 7  22655989.383 8 121194361.612 7  94262198.670 8  22655991.547 8
  19507701.984 7  19507700.422 8 104316547.680 7  81135017.499 8  19507700.750 8
 19  5 14 15 21 30.0000000  0 11G02G05G13G15G21G29R01R02R17R23R24   
  23848798.680 5                 125326273.575 5  97656816.16447  23848794.69947
  21966824.391 7  21966822.594 9 115436436.718 7  89950459.436 9  21966822.32448
  20746918.883 7                 109025805.681 7  84955164.05948  20746916.20348
  20788420.688 7  20788418.715 9 109243897.568 7  85125112.397 9  20788418.29348
  22695951.492 6                 119268039.536 6  92936119.90647  22695948.02347
  20897204.414 7  20897202.094 9 109815543.407 7  85570543.687 9  20897201.78949
  20080756.633 7  20080756.637 9 107343148.979 7  83489121.857 9  20080758.551 9
  19624016.977 8  19624015.152 9 104717523.355 8  81446971.285 9  19624015.863 9
  19546428.000 8  19546426.602 9 104596891.628 8  81353145.461 9  19546427.199 9
  22675899.172 7  22675899.844 8 121300864.240 7  94345034.046 8  22675901.422 8
  19515010.703 7  19515008.551 8 104355630.537 7  81165415.269 8  19515009.449 8
 19  5 14 15 22  0.0000000  0 11G02G05G13G15G21G29R01R02R17R23R24   
  23861749.602 5                 125394330.545 5  97709847.54647  23861745.26647
  21978744.625 7  21978742.172 9 115499076.761 7  89999269.850 9  21978741.87948
  20741321.031 7                 108996387.952 7  84932241.16748  20741318.03948
  20772056.852 7  20772054.793 9 109157903.944 7  85058104.390 9  20772054.22748
  22679470.344 6                 119181430.137 6  92868632.07048  22679467.01648
  20905334.844 7  20905333.086 9 109858269.553 7  85603836.774 9  20905332.64548
  20092177.547 7  20092177.313 9 107404201.399 7  83536607.070 9  20092179.520 9
  19610688.844 8  19610687.500 9 104646405.898 8  81391657.725 9  19610688.363 9
  19531879.828 8  19531878.488 9 104519042.463 8  81292596.109 9  19531879.246 9
  22695854.289 7  22695853.469 8 121407607.264 7  94428056.348 8  22695855.750 8
  19522443.523 7  19522441.836 8 104395377.095 7  81196329.241 8  19522442.570 8
 19  5 14 15 22 30.0000000  0 11G02G05G13G15G21G29R01R02R17R23R24   
  23874735.336 6                 125462567.059 6  97763018.85047  23874730.62547
  21990692.602 7  21990690.309 9 115561863.435 7  90048194.518 9  21990690.09448
  20735840.063 7                 108967585.641 7  84909797.81748  20735837.16848
  20755786.898 7  20755785.180 9 109072405.359 7  84991482.129 9  20755784.58248
  22663008.883 6                 119094925.517 6  92801225.88847  22663005.57847
  20913563.859 7  20913561.875 9 109901512.611 7  85637532.648 9  20913561.30949
  20103668.609 7  20103668.461 9 107465627.401 7  83584382.850 9  20103670.574 9
  19597464.281 8  19597463.387 9 104575838.129 8  81336771.698 9  19597464.094 9
  19517441.438 8  19517440.340 9 104441779.342 8  81232502.574 9  19517440.977 9
  22715852.352 7  22715852.258 8 121514581.716 7  94511258.685 8  22715853.582 8
  19529999.078 6  19529997.273 8 104435780.309 6  81227753.950 8  19529998.250 8
 19  5 14 15 23  0.0000000  0 11G02G05G13G15G21G29R01R02R17R23R24   
  23887754.219 5                 125530984.121 5  97816330.83947  23887749.88347
  22002668.000 7  22002666.195 9 115624796.983 7  90097233.635 9  22002665.64148
  20730476.602 7                 108939400.865 7  84887835.67248  20730473.77348
  20739611.492 7  20739609.703 9 108987405.450 7  84925248.446 9  20739609.31348
  22646568.094 6                 119008529.246 6  92733904.13048  22646564.95748
  20921891.047 7  20921889.020 9 109945272.464 7  85671631.219 9  20921888.66049
  20115229.500 7  20115229.090 9 107527425.581 7  83632448.092 9  20115230.719 9
  19584343.414 8  19584342.328 9 104505821.804 8  81282314.576 9  19584343.328 9
  19503113.227 8  19503112.160 9 104365107.452 8  81172868.886 9  19503112.723 9
  22735891.039 7  22735892.531 8 121621786.072 7  94594639.864 8  22735893.961 8
  19537677.047 6  19537676.090 8 104476840.577 6  81259689.713 8  19537676.551 8
 19  5 14 15 23 30.0000000  0 11G02G05G13G15G21G29R01R02R17R23R24   
  23900808.750 5                 125599583.508 5  97869784.93747  23900803.55147
  22014672.547 7  22014670.414 9 115687878.768 7  90146388.263 9  22014669.94948
  20725231.336 7                 108911836.350 7  84866356.83848  20725228.21148
  20723532.563 7  20723530.711 9 108902908.792 7  84859406.903 9  20723530.34048
  22630148.813 6                 118922244.938 6  92666669.60948  22630145.38348
  20930316.617 7  20930314.871 9 109989549.342 7  85706132.664 9  20930314.44549
  20126859.555 7  20126859.715 9 107589595.483 7  83680802.460 9  20126861.594 9
  19571326.625 8  19571325.828 9 104436360.294 8  81228288.965 9  19571326.551 9
  19488897.023 8  19488895.707 9 104289032.693 8  81113699.627 9  19488896.316 9
  22755975.328 7  22755976.082 8 121729220.648 7  94678200.074 8  22755978.066 8
  19545478.789 7  19545478.223 8 104518559.355 7  81292137.641 8  19545478.395 8
 19  5 14 15 24  0.0000000  0 11G02G05G13G15G21G29R01R02R17R23R24   
  24213688.141 4                 127243780.159 4  99150977.15647  24213683.77347
  22326496.016 7  22326493.820 9 117326523.448 7  91423254.244 9  22326493.41048
  21019896.398 7                 110460311.345 7  86072960.74848  21019893.25048
  21007342.055 7  21007340.203 9 110394338.205 7  86021559.698 9  21007339.87548
  22913543.445 6                 120411495.041 6  93827124.25548  22913540.16848
  21238632.273 7  21238629.902 9 111609757.974 7  86968632.878 9  21238629.58649
  20438349.805 7  20438350.395 9 109254692.096 7  84975877.604 9  20438351.930 9
  19858205.930 8  19858205.215 9 105967203.969 8  82418945.174 9  19858205.684 9
  19774586.039 8  19774584.223 9 105817808.813 8  82302747.723 9  19774584.684 9
  23075893.117 7  23075894.082 8 123440564.893 7  96009245.600 8  23075895.742 8
  19853196.375 7  19853193.832 8 106164056.850 7  82571969.009 8  19853194.434 8
 19  5 14 15 24 30.0000000  0 11G02G05G13G15G21G29R01R02R17R23R24   
  24226809.906 5                 127312731.636 5  99204705.52447  24226804.12147
  22338554.063 7  22338551.961 9 117389887.607 7  91472628.896 9  22338551.67248
  21014885.516 7                 110433978.167 7  86052441.39948  21014882.41048
  20991453.758 7  20991451.734 9 110310844.187 7  85956499.435 9  20991451.27048
  22897165.758 6                 120325428.158 6  93760059.16048  22897162.18448
  21247251.766 7  21247249.219 9 111655053.612 7  87003928.170 9  21247248.95348
  20450115.781 7  20450115.238 9 109317585.547 7  85024794.733 9  20450117.043 9
  19845395.164 8  19845394.285 9 105898842.616 8  82365775.246 9  19845395.148 9
  19760592.320 8  19760590.199 9 105742928.087 8  82244507.156 9  19760591.148 9
  23096060.805 7  23096060.102 8 123548442.171 7  96093150.125 8  23096061.355 8
  19861241.281 6  19861238.480 8 106207078.914 6  82605430.609 8  19861239.230 8
 19  5 14 15 25  0.0000000  0 11G02G05G13G15G21G29R01R02R17R23R24   
  24239963.797 3                 127381861.788 3  99258573.18846  24239959.93846
  22350639.063 7  22350637.074 9 117453395.041 7  91522115.199 9  22350636.62148
  21009991.813 6                 110408264.678 6  86032404.92348  21009989.52748
  20975661.922 7  20975660.195 9 110227857.851 7  85891834.767 9  20975659.83248
  22880809.531 6                 120239476.016 6  93693083.47548  22880805.82048
  21255968.133 7  21255965.930 9 111700859.472 7  87039621.038 9  21255965.60248
  20461949.023 7  20461948.332 9 109380839.720 7  85073992.430 9  20461950.168 9
  19832687.969 8  19832687.168 9 105831035.843 8  82313036.656 9  19832688.074 9
  19746711.984 8  19746710.984 9 105668652.961 8  82186737.623 9  19746711.734 9
  23116267.148 6  23116267.949 8 123656540.066 6  96177226.243 8  23116270.082 8
  19869408.516 7  19869406.988 8 106250754.412 7  82639400.424 8  19869407.121 8
 19  5 14 15 25 30.0000000  0 11G02G05G13G15G21G29R01R02R17R23R24   
  24253150.516 2                 127451161.941 2  99312573.30646  24253147.14846
  22362749.734 7  22362747.609 9 117517036.158 7  91571705.662 9  22362747.49248
  21005215.023 6                 110383162.962 6  86012845.15048  21005213.09448
  20959965.570 7  20959963.621 9 110145373.066 7  85827560.920 9  20959963.33648
  22864473.969 6                 120153631.239 6  93626191.44848  22864470.16848
  21264779.586 7  21264777.738 9 111747165.735 7  87075703.824 9  21264777.48048
  20473847.133 7  20473846.352 9 109444443.204 7  85123461.811 9  20473848.402 9
  19820083.516 8  19820082.863 9 105763775.729 8  82260723.245 9  19820083.461 9
  19732944.047 8  19732943.238 9 105594978.287 8  82129435.102 9  19732943.875 9
  23136512.953 5  23136515.434 8 123764847.637 5  96261465.533 8  23136516.320 8
  19877696.023 7  19877695.645 8 106295073.563 7  82673870.863 8  19877695.703 8
 19  5 14 15 26  0.0000000  0 11G02G05G13G15G21G29R01R02R17R23R24   
  24266370.289 2                 127520632.836 2  99366706.48046  24266367.34046
  22374885.273 7  22374882.984 9 117580810.986 7  91621400.315 9  22374882.50448
  21000555.031 6                 110358674.684 6  85993763.38448  21000552.90648
  20944365.008 7  20944363.281 9 110063393.521 7  85763680.771 9  20944362.76248
  22848158.906 6                 120067897.306 6  93559385.80348  22848155.60548
  21273686.492 7  21273684.492 9 111793971.158 7  87112175.575 9  21273684.16848
  20485811.102 7  20485810.270 9 109508394.957 7  85173202.057 9  20485811.891 9
  19807582.148 8  19807580.855 9 105697064.272 8  82208836.570 9  19807581.371 9
  19719289.742 8  19719288.523 9 105521909.136 8  82072603.545 9  19719288.953 9
  23156801.641 3  23156800.367 8 123873363.964 3  96345866.933 8  23156801.984 8
  19886104.563 7  19886103.777 8 106340037.256 7  82708842.621 8  19886104.008 8
 19  5 14 15 26 30.0000000  0 11G02G05G13G15G21G29R01R02R17R23R24   
  24279623.898 3                 127590280.948 3  99420977.66446  24279620.70346
  22387048.297 7  22387046.035 9 117644725.880 7  91671204.110 9  22387045.49648
  20996013.328 6                 110334807.485 6  85975165.57848  20996011.03148
  20928863.141 7  20928861.168 9 109981928.261 7  85700201.357 9  20928860.65648
  22831867.344 6                 119982281.828 6  93492672.45048  22831863.67248
  21282689.727 7  21282687.391 9 111841281.460 7  87149040.738 9  21282687.00848
  20497839.852 7  20497840.273 9 109572698.811 7  85223216.171 9  20497841.844 9
  19795184.172 8  19795183.574 9 105630908.985 8  82157382.472 9  19795184.281 9
  19705749.602 8  19705748.242 9 105449456.063 8  82016251.161 9  19705749.031 9
  23177129.586 6  23177127.551 8 123982093.653 6  96430434.509 8  23177127.355 8
  19894635.070 7  19894633.605 8 106385651.045 7  82744320.009 8  19894633.938 8
 19  5 14 15 27  0.0000000  0 11G02G05G13G15G20G21G29R01R02R17R24   
  24292913.109 4                 127660105.762 4  99475386.57847  24292909.04747
  22399236.695 7  22399234.922 9 117708779.707 7  91721116.167 9  22399234.42648
  20991589.727 6                 110311561.346 6  85957051.71048  20991587.08648
  20913458.703 7  20913457.223 9 109900979.297 7  85637124.255 9  20913456.65249
  24026898.594 5                 126262281.84315  98386127.85457  24026897.57047
  22815597.875 6                 119896788.235 6  93426054.09148  22815594.70748
  21291787.852 7  21291786.082 9 111889094.653 7  87186297.758 9  21291785.73048
  20509934.797 7  20509934.402 9 109637351.789 7  85273501.821 9  20509936.238 9
  19782890.969 8  19782889.957 9 105565310.747 8  82106361.640 9  19782890.695 9
  19692325.758 8  19692324.559 9 105377622.515 8  81960380.624 9  19692325.527 9
  19903286.328 7  19903286.238 8 106431913.946 7  82780302.258 8  19903285.383 8
 19  5 14 15 27 30.0000000  0 10G05G13G15G20G21G29R01R02R17R24      
  22411451.047 7  22411449.117 9 117772964.793 7  91771130.501 9  22411448.75448
  20987283.484 7                 110288930.350 7  85939417.17648  20987280.45748
  20898152.273 7  20898150.477 9 109820542.205 7  85574446.021 9  20898149.92248
  24006599.891 5                 126155609.568 5  98303006.68547  24006597.79347
  22799351.094 6                 119811410.188 6  93359525.75048  22799348.03148
  21300980.938 7  21300979.094 9 111937402.792 7  87223940.458 9  21300978.66048
  20522093.086 7  20522092.152 9 109702344.722 7  85324051.877 9  20522094.227 9
  19770701.188 8  19770699.953 9 105500263.513 8  82055769.354 9  19770700.730 9
  19679017.164 8  19679015.762 9 105306405.324 8  81904989.480 9  19679016.676 9
  19912058.336 7  19912056.742 8 106478818.377 7  82816783.472 8  19912056.785 8
 19  5 14 15 28  0.0000000  0 10G05G13G15G20G21G29R01R02R17R24      
  22423688.797 6  22423686.676 9 117837274.341 6  91821241.818 9  22423686.28148
  20983093.016 6                 110266909.317 6  85922257.94348  20983090.08248
  20882942.336 7  20882940.180 9 109740612.854 7  85512163.427 9  20882939.76648
  23986316.609 5                 126049020.883 5  98219950.60747  23986314.27747
  22783125.805 6                 119726143.745 6  93293084.37248  22783121.74648
  21310266.344 7  21310263.957 9 111986197.904 7  87261962.606 9  21310263.63748
  20534313.148 7  20534312.984 9 109767668.952 7  85374859.604 9  20534314.645 9
  19758613.961 8  19758612.234 9 105435761.770 8  82005601.346 9  19758613.082 9
  19665823.680 8  19665822.094 9 105235802.070 8  81850075.844 9  19665823.020 9
  19920947.750 7  19920946.121 8 106526357.234 7  82853758.124 8  19920946.652 8
 19  5 14 15 28 30.0000000  0 10G05G13G15G20G21G29R01R02R17R24      
  22435949.953 7  22435947.461 9 117901708.111 7  91871449.928 9  22435947.14148
  20979018.586 7                 110245499.068 7  85905574.64748  20979015.57448
  20867829.797 7  20867827.254 9 109661195.084 7  85450279.462 9  20867826.92649
  23966049.875 5                 125942517.402 5  98136960.93247  23966047.42647
  22766921.711 6                 119640991.523 6  93226732.00648  22766918.21548
  21319644.266 7  21319642.344 9 112035479.266 7  87300363.655 9  21319642.04748
  20546594.789 7  20546595.176 9 109833322.253 7  85425923.279 9  20546596.832 9
  19746628.492 8  19746628.211 9 105371807.132 8  81955858.865 9  19746628.699 9
  19652745.172 8  19652743.648 9 105165816.976 8  81795642.993 9  19652744.770 9
  19929955.781 7  19929955.031 8 106574530.223 7  82891225.987 8  19929955.012 8
 19  5 14 15 29  0.0000000  0 10G05G13G15G20G21G29R01R02R17R24      
  22448234.359 7  22448232.637 9 117966264.073 7  91921753.263 9  22448232.16448
  20975060.445 6                 110224698.502 6  85889366.43148  20975057.55548
  20852814.328 7  20852812.191 9 109582289.185 7  85388794.357 9  20852811.78549
  23945798.695 5                 125836098.315 5  98054037.03646  23945796.44546
  22750739.336 7                 119555953.875 7  93160468.91048  22750735.67648
  21329114.023 7  21329112.191 9 112085243.438 7  87339140.919 9  21329111.76248
  20558937.508 7  20558938.289 9 109899300.389 7  85477239.604 9  20558939.680 9
  19734745.828 8  19734744.652 9 105308398.523 8  81906541.072 9  19734745.461 9
  19639782.609 8  19639781.094 9 105096451.857 8  81741692.351 9  19639782.141 9
  19939083.039 7  19939081.031 8 106623334.581 7  82929184.918 8  19939081.406 8
 19  5 14 15 29 30.0000000  0 10G05G13G15G20G21G29R01R02R17R24      
  22460542.570 7  22460540.863 9 118030942.652 7  91972152.141 9  22460540.36348
  20971218.242 7                 110204508.979 7  85873634.34448  20971215.44548
  20837896.875 7  20837894.914 9 109503898.404 7  85327710.646 9  20837894.62149
  23925564.914 5                 125729766.073 5  97971180.78247  23925562.34447
  22734579.625 6                 119471033.365 6  93094297.10048  22734576.28948
  21338675.625 7  21338673.441 9 112135489.716 7  87378293.851 9  21338673.12548
  20571340.898 7  20571340.895 9 109965601.829 7  85528807.385 9  20571342.574 9
  19722966.258 8  19722965.195 9 105245537.615 8  81857649.268 9  19722966.008 9
  19626936.961 8  19626935.391 9 105027711.608 8  81688227.714 9  19626936.020 9
  19948327.766 7  19948326.160 8 106672770.436 7  82967635.007 8  19948326.195 8
 19  5 14 15 30  0.0000000  0 10G05G13G15G20G21G29R01R02R17R24      
  22472872.023 7  22472870.199 9 118095734.454 7  92022639.244 9  22472869.72348
  20967491.672 6                 110184922.433 6  85858372.11148  20967488.35548
  20823076.586 7  20823074.535 9 109426016.470 7  85267023.440 9  20823074.17648
  23905345.227 5                 125623512.943 5  97888386.16547  23905342.91447
  22718440.805 7                 119386222.959 7  93028211.07848  22718437.13748
  21348326.836 7  21348325.039 9 112186207.800 7  87417814.422 9  21348324.94948
  20583801.711 7  20583801.746 9 110032215.447 7  85580617.973 9  20583803.477 9
  19711286.844 8  19711285.699 9 105183216.630 8  81809177.401 9  19711286.438 9
  19614206.766 8  19614205.195 9 104959591.150 8  81635245.142 9  19614205.945 9
  19957689.047 7  19957688.266 8 106722827.995 7  83006568.651 8  19957688.320 8
 19  5 14 15 30 30.0000000  0 11G05G13G15G20G21G29R01R02R17R18R24   
  22485224.227 6  22485222.555 9 118160645.915 6  92073219.587 9  22485221.97748
  20963879.711 6                 110165946.581 6  85843585.74948  20963877.41848
  20808354.898 7  20808352.785 9 109348652.828 7  85206740.087 9  20808352.55949
  23885142.438 5                 125517347.429 5  97805659.82046  23885140.44546
  22702324.633 7                 119301532.086 7  92962218.20348  22702321.21948
  21358068.961 7  21358067.031 9 112237403.400 7  87457707.084 9  21358067.00048
  20596322.664 7  20596322.258 9 110099145.722 7  85632674.854 9  20596324.242 9
  19699710.477 8  19699709.750 9 105121443.194 8  81761131.416 9  19699710.484 9
  19601594.969 8  19601593.516 9 104892101.214 8  81582752.976 9  19601594.391 9
  23202325.055 5  23202325.504 9 123855594.62015  96332127.29519  23202326.379 9
  19967167.805 7  19967166.563 8 106773513.583 7  83045990.762 8  19967166.578 8
 19  5 14 15 31  0.0000000  0 11G05G13G15G20G21G29R01R02R17R18R24   
  22497600.219 7  22497598.309 9 118225679.683 7  92123895.222 9  22497597.86748
  20960386.094 6                 110147585.170 6  85829278.16148  20960383.09848
  20793732.477 7  20793730.418 9 109271812.963 7  85146864.884 9  20793730.14148
  23864957.453 5                 125411273.836 5  97723005.09646  23864954.82046
  22686231.922 7                 119216966.035 7  92896322.59148  22686229.26648
  21367902.492 7  21367900.367 9 112289078.264 7  87497973.195 9  21367900.16448
  20608902.617 7  20608902.855 9 110166393.936 7  85684979.013 9  20608904.734 9
  19688237.414 8  19688236.195 9 105060221.239 8  81713514.350 9  19688237.066 9
  19589101.828 8  19589100.840 9 104825248.982 8  81530756.798 9  19589101.367 9
  23176032.828 5  23176032.328 9 123715244.424 5  96222966.070 9  23176033.645 9
  19976762.906 7  19976762.035 8 106824829.337 7  83085903.003 8  19976762.043 8
 19  5 14 15 31 30.0000000  0 11G05G13G15G20G21G29R01R02R17R18R24   
  22509999.156 7  22509997.082 9 118290838.791 7  92174668.531 9  22509996.65648
  20957009.930 6                 110129842.435 6  85815452.67048  20957006.91048
  20779211.039 7  20779209.566 9 109195503.290 7  85087402.815 9  20779209.12949
  23844790.992 5                 125305297.445 5  97640426.12346  23844788.62946
  22670164.664 7                 119132531.229 7  92830529.24648  22670161.80148
  21377827.352 7  21377825.715 9 112341234.772 7  87538614.624 9  21377825.34848
  20621542.281 7  20621543.203 9 110233961.674 7  85737531.692 9  20621544.883 9
  19676868.398 8  19676867.250 9 104999556.684 8  81666330.823 9  19676868.320 9
  19576729.234 8  19576728.160 9 104759042.204 8  81479262.642 9  19576728.813 9
  23149764.531 6  23149763.699 9 123575020.328 6  96113902.927 9  23149765.176 9
  19986478.375 7  19986476.660 8 106876778.657 7  83126308.019 8  19986477.332 8
 19  5 14 15 32  0.0000000  0 11G05G13G15G20G21G29R01R02R17R18R24   
  22522422.063 7  22522419.508 9 118356119.278 7  92225536.413 9  22522419.26648
  20953750.258 6                 110112714.818 6  85802106.48348  20953747.24648
  20764790.500 7  20764789.129 9 109119722.146 7  85028352.588 9  20764788.77349
  23824642.023 5                 125199415.453 5  97557920.69046  23824639.80146
  22654122.078 6                 119048225.450 6  92764836.44648  22654118.90248
  21387843.227 7  21387841.566 9 112393867.222 7  87579626.913 9  21387841.16848
  20634241.188 7  20634241.285 9 110301842.090 7  85790327.559 9  20634243.082 9
  19665603.633 8  19665602.418 9 104939445.179 8  81619577.437 9  19665603.250 9
  19564477.656 8  19564476.387 9 104693480.460 8  81428270.177 9  19564476.957 9
  23123518.992 6  23123519.176 9 123434921.939 6  96004937.562 9  23123520.008 9
  19996311.023 7  19996309.871 8 106929356.446 7  83167201.840 8  19996310.078 8
 19  5 14 15 32 30.0000000  0 11G05G13G15G20G21G29R01R02R17R18R24   
  22534866.430 7  22534864.223 9 118421515.499 7  92276494.497 9  22534863.73448
  20950607.500 6                 110096198.717 6  85789236.80548  20950604.70348
  20750469.805 7  20750467.895 9 109044466.509 7  84969711.843 9  20750467.54749
  23804509.898 4                 125093623.996 4  97475485.81246  23804508.01246
  22638102.672 6                 118964045.692 6  92699241.83648  22638099.52348
  21397948.055 7  21397946.195 9 112446969.186 7  87621005.054 9  21397945.81648
  20646996.898 7  20646996.871 9 110370027.950 7  85843361.001 9  20646998.773 9
  19654442.211 9  19654440.902 9 104879883.073 9  81573251.377 9  19654441.719 9
  19552346.297 8  19552344.355 9 104628562.039 8  81377778.073 9  19552345.633 9
  23097297.563 6  23097297.238 9 123294948.616 6  95896069.457 9  23097297.980 9
  20006259.664 7  20006258.402 8 106982556.521 7  83208579.667 8  20006257.992 8
 19  5 14 15 33  0.0000000  0 11G05G13G15G20G21G29R01R02R17R18R24   
  22547333.563 7  22547331.035 9 118487029.143 7  92327544.066 9  22547330.88748
  20947581.344 7                 110080296.246 7  85776845.27648  20947578.55548
  20736249.961 7  20736248.297 9 108969741.681 7  84911484.719 9  20736247.86349
  23784396.930 3                 124987926.799 3  97393124.38546  23784394.59046
  22622109.078 6                 118879996.060 6  92633748.63348  22622105.57448
  21408142.430 7  21408140.340 9 112500541.556 7  87662749.749 9  21408140.25448
  20659810.148 7  20659809.066 9 110438519.433 7  85896632.146 9  20659810.992 9
  19643384.055 8  19643383.164 9 104820872.764 8  81527354.477 9  19643384.137 9
  19540335.859 8  19540334.602 9 104564293.568 8  81327791.490 9  19540335.188 9
  23071100.484 6  23071099.738 9 123155106.766 6  95787303.608 9  23071101.016 9
  20016324.734 7  20016323.559 8 107036380.367 7  83250442.646 8  20016323.660 8
 19  5 14 15 33 30.0000000  0 11G05G13G15G20G21G29R01R02R17R18R24   
  22559822.992 7  22559820.727 9 118552660.149 7  92378685.094 9  22559820.30148
  20944672.469 7                 110065008.364 7  85764932.64848  20944669.55948
  20722131.750 7  20722129.844 9 108895549.949 7  84853672.994 9  20722129.56349
  23764301.234 3                 124882325.787 3  97310837.92646  23764299.06346
  22606140.063 6                 118796079.422 6  92568359.06448  22606136.59048
  21418426.617 7  21418424.629 9 112554583.132 7  87704860.059 9  21418424.29348
  20672679.430 7  20672678.758 9 110507314.265 7  85950139.229 9  20672680.914 9
  19632429.008 8  19632427.809 9 104762416.089 8  81481888.181 9  19632428.898 9
  19528447.703 8  19528446.699 9 104500678.504 8  81278313.108 9  19528447.738 9
  23044928.133 6  23044928.809 9 123015401.066 6  95678643.660 9  23044929.750 9
  20026506.266 7  20026504.785 8 107090827.187 7  83292790.150 8  20026505.445 8
 19  5 14 15 34  0.0000000  0 11G05G13G15G20G21G29R01R02R17R18R24   
  22572333.641 7  22572331.375 9 118618405.876 7  92429915.518 9  22572330.88348
  20941879.633 7                 110050333.444 7  85753497.65448  20941876.93048
  20708115.352 7  20708113.609 9 108821891.547 7  84796276.850 9  20708113.12949
  23744224.477 3                 124776820.146 3  97228625.81246  23744222.46146
  22590196.633 6                 118712295.698 6  92503073.06148  22590192.66848
  21428798.711 7  21428796.895 9 112609090.006 7  87747332.936 9  21428796.68448
  20685604.711 7  20685604.695 9 110576408.229 7  86003878.979 9  20685606.410 9
  19621577.531 8  19621576.598 9 104704511.597 8  81436851.370 9  19621577.324 9
  19516682.445 8  19516681.051 9 104437718.663 8  81229344.344 9  19516681.742 9
  23018782.156 6  23018783.426 9 122875833.463 6  95570091.133 9  23018783.918 8
  20036804.297 7  20036803.371 8 107145893.526 7  83335619.513 8  20036803.492 8
 19  5 14 15 34 30.0000000  0 11G05G13G15G20G21G29R01R02R17R18R24   
  22584866.398 7  22584864.734 9 118684267.910 7  92481236.566 9  22584864.19548
  20939204.211 7                 110036274.075 7  85742542.31548  20939201.54348
  20694200.664 7  20694198.887 9 108748770.861 7  84739299.703 9  20694198.56349
  23724165.930 3                 124671412.803 3  97146490.25746  23724163.94146
  22574279.367 6                 118628649.076 6  92437893.89348  22574275.48048
  21439259.492 7  21439257.695 9 112664062.234 7  87790168.425 9  21439257.23848
  20698585.594 7  20698585.523 9 110645800.754 7  86057850.939 9  20698587.422 9
  19610829.820 8  19610829.254 9 104647161.250 8  81392245.557 9  19610829.699 9
  19505040.461 8  19505039.156 9 104375419.468 8  81180889.419 9  19505040.063 9
  22992663.891 6  22992663.305 9 122736410.129 6  95461650.810 9  22992664.625 8
  20047217.703 7  20047217.191 8 107201580.878 7  83378931.888 8  20047217.273 8
 19  5 14 15 35  0.0000000  0 11G05G13G15G20G21G29R01R02R17R18R24   
  22597418.438 7  22597416.246 9 118750228.467 7  92532634.387 9  22597415.95748
  20936642.977 7                 110022812.974 7  85732053.15848  20936639.75848
  20680385.813 7  20680383.484 9 108676172.470 7  84682729.538 9  20680383.01649
  23704123.609 4                 124566087.475 4  97064418.63646  23704120.74246
  22558384.672 6                 118545124.024 6  92372809.44648  22558380.98848
  21449805.789 7  21449803.426 9 112719481.320 7  87833352.117 9  21449803.23048
  20711619.195 7  20711619.641 9 110715471.938 7  86112039.622 9  20711621.254 9
  19600183.750 8  19600182.152 9 104590348.707 8  81348058.038 9  19600183.043 9
  19493519.398 9  19493518.070 9 104313767.085 9  81132937.563 9  19493518.887 9
  22966570.383 6  22966569.047 8 122597117.612 6  95353312.227 8  22966570.461 8
  20057744.531 7  20057743.066 8 107257869.824 7  83422712.172 8  20057743.113 8
 19  5 14 15 35 30.0000000  0 11G05G13G15G20G21G29R01R02R17R18R24   
  22609992.555 7  22609990.348 9 118816304.451 7  92584122.159 9  22609989.73448
  20934198.539 7                 110009967.863 7  85722043.99048  20934195.69948
  20666673.922 7  20666671.973 9 108604116.212 7  84626581.814 9  20666671.69949
  23684100.164 3                 124460862.912 3  96982425.49946  23684097.38746
  22542517.328 6                 118461740.246 6  92307835.08548  22542513.88348
  21460439.469 7  21460437.379 9 112775362.840 7  87876896.141 9  21460437.00448
  20724707.773 7  20724706.941 9 110785437.120 7  86166456.986 9  20724708.820 9
  19589640.859 8  19589639.773 9 104534092.229 8  81304303.014 9  19589640.840 9
  19482122.641 8  19482121.406 9 104252782.639 8  81085505.218 9  19482122.156 9
  22940504.867 6  22940504.188 9 122457977.917 6  95245092.502 9  22940505.152 8
  20068386.414 7  20068384.582 8 107314777.418 7  83466973.616 8  20068384.754 8
 19  5 14 15 36  0.0000000  0 11G05G13G15G20G21G29R01R02R17R18R24   
  22622588.078 6  22622586.102 9 118882495.141 6  92635699.313 9  22622585.88748
  20931871.242 7                 109997738.724 7  85712514.79748  20931868.55948
  20653065.242 7  20653063.691 9 108532603.871 7  84570857.925 9  20653063.20749
  23664095.680 4                 124355740.892 4  96900512.27446  23664093.37546
  22526677.203 6                 118378499.390 6  92242972.09348  22526673.44148
  21471161.055 7  21471159.035 9 112831704.850 7  87920798.991 9  21471158.73448
  20737850.430 7  20737850.836 9 110855693.836 7  86221101.100 9  20737852.418 9
  19579202.492 8  19579201.316 9 104478391.955 8  81260980.592 9  19579202.000 9
  19470851.563 8  19470850.539 9 104192469.339 8  81038594.873 9  19470851.574 9
  22914468.008 6  22914467.320 9 122318995.078 6  95136994.787 9  22914468.449 8
  20079144.500 6  20079142.238 8 107372302.125 6  83511715.041 8  20079143.113 8
 19  5 14 15 36 30.0000000  0 11G05G13G15G20G21G29R01R02R17R18R24   
  22635203.117 6  22635201.711 9 118948790.163 6  92687357.753 9  22635201.30148
  20929659.477 7                 109986116.164 7  85703458.26848  20929656.58648
  20639559.234 7  20639557.516 9 108461628.017 7  84515552.081 9  20639557.18449
  23644108.617 4                 124250711.598 4  96818671.30546  23644107.23846
  22510862.578 6                 118295393.954 6  92178214.62648  22510859.30948
  21481968.086 7  21481966.203 9 112888495.777 7  87965051.653 9  21481965.91448
  20751045.609 7  20751045.445 9 110926229.763 7  86275962.368 9  20751047.277 9
  19568866.867 8  19568865.840 9 104423238.886 8  81218083.771 9  19568866.883 9
  19459705.117 8  19459703.727 9 104132820.627 8  80992201.433 9  19459704.547 9
  22888459.836 6  22888459.449 9 122180163.142 6  95029014.438 9  22888460.504 8
  20090014.711 6  20090013.941 8 107430432.938 6  83556927.886 8  20090013.742 8
 19  5 14 15 37  0.0000000  0 11G05G13G15G20G21G29R01R02R17R18R24   
  22647839.031 6  22647837.395 9 119015191.487 6  92739099.022 9  22647837.23448
  20927563.875 7                 109975102.951 7  85694876.55048  20927560.48448
  20626156.156 7  20626153.801 9 108391193.225 7  84460667.836 9  20626153.48849
  23624141.031 5                 124145779.509 5  96736906.07846  23624139.63346
  22495074.922 6                 118212428.747 6  92113566.42048  22495071.21548
  21492860.617 7  21492858.664 9 112945736.603 7  88009654.880 9  21492858.15648
  20764293.383 7  20764293.117 9 110997045.167 7  86331041.000 9  20764295.195 9
  19558634.539 8  19558633.730 9 104368635.547 8  81175614.516 9  19558634.383 9
  19448683.789 8  19448682.047 9 104073842.845 8  80946329.820 9  19448682.828 9
  22862481.078 6  22862480.777 8 122041488.993 6  94921156.796 8  22862482.023 8
  20100999.922 7  20100997.840 8 107489170.939 7  83602612.978 8  20100997.820 8
 19  5 14 15 37 30.0000000  0 11G05G13G15G20G21G29R01R02R17R18R24   
  22660495.398 6  22660493.672 9 119081701.354 6  92790924.882 9  22660493.44148
  20925584.773 7                 109964701.759 7  85686771.73548  20925581.21148
  20612856.469 7  20612854.777 9 108321304.017 7  84406208.722 9  20612854.48449
  23604192.477 5                 124040948.178 5  96655219.35146  23604190.65646
  22479314.703 7                 118129607.964 7  92049030.75548  22479311.25848
  21503838.844 7  21503836.852 9 113003428.111 7  88054609.289 9  21503836.57848
  20777593.711 7  20777593.074 9 111068140.177 7  86386337.121 9  20777594.883 9
  19548505.742 8  19548504.910 9 104314585.702 8  81133575.765 9  19548505.719 9
  19437789.211 8  19437787.582 9 104015541.693 8  80900984.478 9  19437788.168 9
  22836534.617 6  22836533.848 8 121902979.584 6  94813427.294 8  22836534.703 8
  20112096.703 6  20112095.988 8 107548517.239 6  83648771.202 8  20112096.250 8
 19  5 14 15 38  0.0000000  0 11G05G13G15G20G21G29R01R02R17R18R24   
  22673172.391 6  22673170.348 9 119148318.282 6  92842834.170 9  22673170.19548
  20923721.383 7                 109954911.924 7  85679143.31248  20923718.21948
  20599661.109 7  20599659.172 9 108251961.713 7  84352175.767 9  20599658.86349
  23584262.719 5                 123936218.531 5  96573611.85447  23584261.35247
  22463582.242 7                 118046933.078 7  91984608.77848  22463578.84048
  21514902.820 7  21514900.574 9 113061567.661 7  88099912.826 9  21514900.52348
  20790944.219 7  20790944.852 9 111139511.646 7  86441848.258 9  20790946.203 9
  19538480.242 8  19538478.250 9 104261088.332 8  81091966.711 9  19538479.438 9
  19427020.945 9  19427019.344 9 103957919.772 9  80856167.424 9  19427020.332 9
  22810618.461 6  22810618.156 8 121764638.112 6  94705828.411 8  22810619.004 8
  20123307.969 6  20123306.180 8 107608469.895 6  83695401.033 8  20123307.098 8
 19  5 14 15 38 30.0000000  0 11G05G13G15G20G21G29R01R02R17R18R24   
  22685870.406 6  22685868.441 9 119215045.684 6  92894829.521 9  22685867.99248
  20921975.648 7                 109945737.426 7  85671994.35548  20921972.52048
  20586570.766 7  20586568.730 9 108183172.093 7  84298573.478 9  20586568.39149
  23564354.188 5                 123831595.002 5  96492087.04347  23564352.16447
  22447878.516 6                 117964410.224 6  91920305.26248  22447874.94948
  21526051.656 7  21526049.953 9 113120157.182 7  88145566.986 9  21526049.43448
  20804347.805 7  20804348.379 9 111211161.188 7  86497575.670 9  20804350.219 9
  19528559.250 8  19528558.313 9 104208147.804 8  81050790.761 9  19528559.297 9
  19416381.164 8  19416380.035 9 103900984.356 8  80811884.317 9  19416380.863 9
  22784735.258 6  22784735.293 9 121626472.977 6  94598366.679 9  22784735.922 8
  20134633.742 7  20134631.672 8 107669031.491 7  83742504.476 8  20134632.418 8
 19  5 14 15 39  0.0000000  0 12G05G13G15G20G21G29R01R02R03R17R18R24
  22698586.141 6  22698584.500 9 119281871.491 6  92946901.563 9  22698584.18848
  20920344.625 7                 109937166.976 7  85665316.09748  20920341.41848
  20573584.281 7  20573582.051 9 108114925.741 7  84245394.509 9  20573581.82849
  23544462.750 5                 123727067.547 5  96410637.10447  23544461.19147
  22432202.367 6                 117882029.407 6  91856112.42348  22432198.66848
  21537283.953 7  21537282.090 9 113179183.389 7  88191561.424 9  21537281.59848
  20817801.180 7  20817801.078 9 111283074.702 7  86553508.397 9  20817803.246 9
  19518740.523 8  19518739.195 9 104155753.461 8  81010039.618 9  19518740.125 9
  23146564.484 5  23146564.141 9 123905367.03515  96370844.79019  23146564.891 9
  19405867.922 8  19405866.363 9 103844726.982 8  80768128.583 9  19405867.188 9
  22758883.125 6  22758882.965 9 121488476.244 6  94491035.947 9  22758884.066 8
  20146071.344 6  20146068.977 8 107730188.896 6  83790071.342 8  20146069.543 8
 19  5 14 15 39 30.0000000  0 12G05G13G15G20G21G29R01R02R03R17R18R24
  22711322.961 6  22711321.293 9 119348802.519 6  92999055.584 9  22711320.76648
  20918829.789 7                 109929207.339 7  85659113.79748  20918826.82048
  20560702.352 7  20560700.336 9 108047231.693 7  84192645.917 9  20560699.96149
  23524592.242 5                 123622644.125 5  96329268.26047  23524589.76647
  22416554.594 6                 117799800.652 6  91792038.08248  22416551.05948
  21548600.375 7  21548598.266 9 113238651.508 7  88237900.215 9  21548598.05548
  20831303.953 7  20831303.938 9 111355256.973 7  86609650.158 9  20831306.125 9
  19509025.547 8  19509024.387 9 104103912.388 8  80969718.796 9  19509024.762 9
  23122960.359 5  23122961.488 9 123779016.393 5  96272572.104 9  23122961.809 9
  19395483.664 8  19395482.105 9 103789158.218 8  80724908.434 9  19395482.672 9
  22733066.148 6  22733065.711 9 121350659.647 6  94383845.308 9  22733066.605 9
  20157620.070 7  20157618.336 8 107791947.666 7  83838105.919 8  20157618.652 8
 19  5 14 15 40  0.0000000  0 12G05G13G15G20G21G29R01R02R03R17R18R24
  22724081.305 6  22724079.719 9 119415847.766 6  93051298.623 9  22724079.44548
  20917433.680 7                 109921868.611 7  85653395.32248  20917430.80548
  20547927.578 7  20547925.859 9 107980101.053 7  84140336.336 9  20547925.60949
  23504742.766 5                 123518335.609 5  96247988.96847  23504740.74247
  22400937.789 6                 117717734.597 6  91728090.51248  22400934.57048
  21560002.539 7  21560000.406 9 113298569.421 7  88284589.484 9  21560000.10548
  20844860.094 7  20844859.086 9 111427715.481 7  86666006.778 9  20844861.031 9
  19499416.164 8  19499415.020 9 104052634.956 8  80929836.356 9  19499415.934 9
  23099402.273 5  23099402.563 9 123652905.183 5  96174485.620 9  23099402.977 9
  19385230.094 8  19385228.926 9 103734291.086 8  80682233.999 9  19385229.531 9
  22707284.055 6  22707284.496 9 121213037.013 6  94276805.513 9  22707285.180 9
  20169282.758 7  20169281.246 8 107854316.228 7  83886614.784 8  20169281.465 8
 19  5 14 15 40 30.0000000  0 12G05G13G15G20G21G29R01R02R03R17R18R24
  22736859.656 6  22736858.113 9 119482999.486 6  93103624.631 9  22736857.58247
  20916154.133 7                 109915143.327 7  85648154.84748  20916151.35948
  20535259.633 7  20535257.547 9 107913529.340 7  84088462.286 9  20535257.13749
  23484914.445 5                 123414136.022 5  96166794.53647  23484911.78147
  22385351.148 6                 117635826.767 6  91664266.24048  22385347.64148
  21571488.336 7  21571486.246 9 113358927.527 7  88331621.770 9  21571486.09448
  20858464.367 7  20858463.879 9 111500440.489 7  86722570.658 9  20858465.504 9
  19489911.289 8  19489910.051 9 104001914.034 8  80890386.760 9  19489910.930 9
  23075887.531 5  23075887.160 9 123527028.139 5  96076581.290 9  23075887.840 9
  19375107.742 8  19375106.023 9 103680121.523 8  80640102.117 9  19375106.742 9
  22681538.883 6  22681538.105 9 121075605.651 6  94169914.494 9  22681539.324 9
  20181058.250 7  20181057.641 8 107917285.693 7  83935591.016 8  20181057.434 8
 19  5 14 15 41  0.0000000  0 12G05G13G15G20G21G29R01R02R03R17R18R24
  22749657.547 6  22749655.680 9 119550252.192 6  93156029.313 9  22749655.35248
  20914989.617 7                 109909026.176 7  85643388.24448  20914986.71148
  20522697.133 7  20522695.094 9 107847512.987 7  84037020.981 9  20522694.66849
  23465105.375 5                 123310041.540 5  96085681.97446  23465103.18046
  22369794.289 6                 117554073.879 6  91600562.69948  22369790.75048
  21583056.820 7  21583054.641 9 113419719.200 7  88378991.895 9  21583054.49648
  20872117.828 7  20872116.887 9 111573424.636 7  86779336.100 9  20872118.762 9
  19480509.492 8  19480508.395 9 103951744.660 8  80851366.145 9  19480509.281 9
  23052415.773 6  23052415.875 9 123401382.524 6  95978856.954 9  23052416.242 9
  19365114.602 8  19365112.527 9 103626647.430 8  80598511.147 9  19365113.266 9
  22655828.961 6  22655828.699 9 120938364.293 6  94063171.253 9  22655829.559 9
  20192945.930 7  20192943.703 8 107980849.550 7  83985029.555 8  20192944.816 8
 19  5 14 15 41 30.0000000  0 12G05G13G15G20G21G29R01R02R03R17R18R24
  22762475.250 6  22762473.293 9 119617607.828 6  93208514.207 9  22762472.81647
  20913942.133 7                 109903520.038 7  85639097.75648  20913939.20348
  20510241.297 7  20510239.035 9 107782056.554 7  83986015.977 9  20510238.72749
  23445317.289 4                 123206056.184 4  96004654.45047  23445315.26247
  22354267.289 6                 117472480.647 6  91536983.56448  22354264.09448
  21594707.578 7  21594705.551 9 113480945.554 7  88426700.729 9  21594705.25848
  20885818.547 7  20885818.547 9 111646668.472 7  86836303.518 9  20885820.422 9
  19471211.664 9  19471210.867 9 103902130.188 9  80812777.119 9  19471211.582 9
  23028988.391 6  23028988.363 9 123275973.135 6  95881316.332 9  23028988.867 9
  19355252.445 8  19355251.027 9 103573874.699 8  80557465.682 9  19355251.637 9
  22630156.422 6  22630155.133 9 120801319.985 6  93956581.278 9  22630156.410 9
  20204943.531 7  20204941.691 8 108045008.572 7  84034930.998 8  20204942.094 8
 19  5 14 15 42  0.0000000  0 12G05G13G15G20G21G29R01R02R03R17R18R24
  22775309.648 6  22775308.082 9 119685055.078 6  93261070.487 9  22775307.53148
  20913007.930 7                 109898614.134 7  85635274.97848  20913005.59048
  20497890.195 7  20497887.922 9 107717151.076 7  83935440.297 9  20497887.56349
  23425548.164 4                 123102170.072 4  95923704.28546  23425546.27346
  22338769.594 6                 117391038.642 6  91473522.26848  22338765.95348
  21606438.633 7  21606436.949 9 113542593.333 7  88474737.949 9  21606436.81348
  20899566.172 7  20899566.563 9 111720158.363 7  86893462.325 9  20899568.262 9
  19462015.734 9  19462014.977 9 103853059.791 9  80774611.265 9  19462015.539 9
  23005602.789 6  23005603.242 9 123150791.485 6  95783952.855 9  23005603.898 9
  19345520.430 8  19345518.637 9 103521795.453 8  80516959.595 9  19345519.352 9
  22604518.383 6  22604518.305 9 120664466.228 6  93850139.506 9  22604518.805 9
  20217051.125 7  20217049.590 8 108109750.796 7  84085286.054 8  20217049.418 8
 19  5 14 15 42 30.0000000  0 12G05G13G15G20G21G29R01R02R03R17R18R24
  22788165.289 6  22788163.727 9 119752611.603 6  93313711.918 9  22788163.09447
  20912191.953 7                 109894325.146 7  85631932.91748  20912189.63348
  20485647.188 7  20485645.145 9 107652815.622 7  83885308.792 9  20485644.73449
  23405802.273 5                 122998401.789 5  95842845.92446  23405799.79746
  22323303.898 6                 117309767.017 6  91410193.73448  22323300.19148
  21618252.930 7  21618250.453 9 113604677.989 7  88523115.598 9  21618250.30148
  20913362.758 7  20913363.734 9 111793909.843 7  86950824.586 9  20913365.461 9
  19452925.375 8  19452924.414 9 103804551.195 8  80736882.360 9  19452924.785 9
  22982264.477 6  22982264.559 9 123025857.069 6  95686781.656 9  22982265.137 9
  19335921.320 8  19335920.598 9 103470430.365 8  80477008.973 9  19335921.301 9
  22578921.047 7  22578920.609 9 120527824.726 7  93743862.810 9  22578921.621 9
  20229270.492 6  20229268.375 8 108175091.816 6  84136106.831 8  20229268.387 8
 19  5 14 15 43  0.0000000  0 12G05G13G15G20G21G29R01R02R03R17R18R24
  22801040.508 6  22801038.414 9 119820269.268 6  93366432.158 9  22801038.25447
  20911492.242 7                 109890646.717 7  85629066.61548  20911489.07048
  20473512.109 7  20473510.281 9 107589045.153 7  83835617.527 9  20473509.86749
  23386076.352 5                 122894745.314 5  95762074.66346  23386074.64846
  22307870.281 6                 117228661.190 6  91346994.39648  22307866.98048
  21630148.977 7  21630146.742 9 113667190.782 7  88571826.850 9  21630146.26648
  20927207.617 7  20927207.188 9 111867913.399 7  87008382.901 9  20927209.211 9
  19443938.867 8  19443937.422 9 103756597.538 8  80699585.080 9  19443938.133 9
  22958971.578 6  22958970.656 9 122901164.933 6  95589798.920 9  22958971.008 9
  19326455.469 8  19326453.863 9 103419775.576 8  80437610.802 9  19326454.539 9
  22553363.375 7  22553362.633 9 120391392.719 7  93637749.042 9  22553363.215 9
  20241599.367 6  20241598.102 8 108241022.889 6  84187386.540 8  20241598.438 8
 19  5 14 15 43 30.0000000  0 12G05G13G15G20G21G29R01R02R03R17R18R24
  22813934.688 6  22813932.906 9 119888030.554 6  93419233.135 9  22813932.63747
  20910908.844 7                 109887581.315 7  85626678.00048  20910905.95348
  20461485.359 7  20461483.316 9 107525844.476 7  83786370.258 9  20461483.07849
  23366373.945 5                 122791204.979 5  95681393.93046  23366371.32046
  22292468.992 7                 117147725.946 7  91283927.97148  22292465.24248
  21642126.625 7  21642124.141 9 113730132.601 7  88620872.408 9  21642123.70748
  20941097.602 7  20941098.043 9 111942169.842 7  87066137.904 9  20941099.980 9
  19435057.172 8  19435055.738 9 103709202.178 8  80662722.029 9  19435056.383 9
  22935723.930 6  22935723.797 9 122776720.646 6  95493008.938 9  22935724.352 9
  19317123.305 8  19317122.051 9 103369836.961 8  80398769.654 9  19317122.496 9
  22527844.969 7  22527844.563 9 120255177.510 7  93531803.905 9  22527845.590 9
  20254038.813 6  20254038.219 8 108307545.643 6  84239126.449 8  20254038.367 8
 19  5 14 15 44  0.0000000  0 12G05G13G15G20G21G29R01R02R03R17R18R24
  22826847.102 6  22826844.754 9 119955884.424 6  93472106.254 9  22826844.32447
  20910440.531 7                 109885117.921 7  85624758.47948  20910437.30548
  20449565.148 7  20449563.598 9 107463204.507 7  83737559.899 9  20449563.23049
  23346691.578 5                 122687771.149 5  95600796.17847  23346688.82847
  22277098.391 6                 117066952.906 6  91220987.94748  22277094.75448
  21654183.172 7  21654180.891 9 113793490.858 7  88670242.466 9  21654180.31348
  20955034.930 7  20955034.715 9 112016665.889 7  87124079.270 9  20955036.746 9
  19426278.055 8  19426277.145 9 103662354.374 8  80626284.854 9  19426277.430 9
  22912520.859 6  22912521.367 9 122652515.387 6  95396404.875 9  22912521.691 9
  19307923.109 8  19307921.328 9 103320606.754 8  80360479.496 9  19307922.465 9
  22502366.813 7  22502366.988 9 120119172.573 7  93426022.317 9  22502367.527 9
  20266587.508 6  20266587.078 8 108374647.439 6  84291316.723 8  20266586.852 8
 19  5 14 15 44 30.0000000  0 12G05G13G15G20G21G29R01R02R03R17R18R24
  22839778.820 6  22839776.164 9 120023839.872 6  93525058.529 9  22839776.05148
  20910087.492 7                 109883265.630 7  85623315.14248  20910084.77048
  20437754.336 7  20437751.949 9 107401136.170 7  83689194.967 9  20437751.70349
  23327030.406 5                 122584454.511 5  95520289.75347  23327028.42247
  22261760.266 6                 116986353.223 6  91158183.00948  22261756.97348
  21666320.547 7  21666318.207 9 113857272.856 7  88719942.714 9  21666317.72748
  20969017.313 7  20969017.199 9 112091408.860 7  87182212.693 9  20969019.043 9
  19417603.094 8  19417601.992 9 103616063.772 8  80590281.063 9  19417602.785 9
  22889365.344 6  22889364.965 9 122528560.625 6  95299995.639 9  22889365.313 9
  19298857.750 8  19298856.781 9 103272097.381 8  80322749.985 9  19298857.633 9
  22476931.094 7  22476929.598 9 119983391.684 7  93320414.979 9  22476930.387 9
  20279245.203 6  20279243.605 8 108442335.925 6  84343963.313 8  20279244.234 8
 19  5 14 15 45  0.0000000  0 12G05G13G15G20G21G29R01R02R03R17R18R24
  22852727.789 6  22852726.105 9 120091889.184 6  93578083.950 9  22852725.54748
  20909850.289 7                 109882017.217 7  85622342.36748  20909847.00048
  20426050.758 7  20426048.930 9 107339634.257 7  83641271.406 9  20426048.75849
  23307391.844 5                 122481249.243 5  95439870.08547  23307389.08647
  22246454.711 6                 116905922.162 6  91095509.46948  22246451.31648
  21678536.500 7  21678534.477 9 113921469.448 7  88769966.018 9  21678534.18848
  20983043.930 7  20983042.969 9 112166389.440 7  87240530.916 9  20983045.242 9
  19409031.055 8  19409029.707 9 103570323.582 8  80554705.363 9  19409030.758 9
  22866255.414 6  22866255.344 9 122404851.613 6  95203777.540 9  22866256.141 9
  19289926.719 8  19289926.281 9 103224304.759 8  80285577.942 9  19289926.973 9
  22451535.898 7  22451535.441 9 119847832.199 7  93214979.848 9  22451536.188 9
  20292012.328 7  20292010.676 8 108510602.528 7  84397059.546 8  20292010.977 8
 19  5 14 15 45 30.0000000  0 12G05G13G15G20G21G29R01R02R03R17R18R24
  22865697.141 6  22865694.582 9 120160039.726 6  93631188.245 9  22865694.51248
  20909728.586 7                 109881380.213 7  85621846.00548  20909725.64848
  20414457.305 7  20414454.887 9 107278708.514 7  83593796.813 9  20414454.60549
  23287774.578 5                 122378163.736 5  95359543.74147  23287772.61747
  22231183.094 6                 116825669.427 6  91032974.87948  22231179.70748
  21690832.828 7  21690830.434 9 113986086.224 7  88820316.739 9  21690830.19148
  20997115.453 7  20997115.648 9 112241613.102 7  87299038.210 9  20997117.434 9
  19400564.063 8  19400563.258 9 103525141.415 8  80519563.688 9  19400563.906 9
  22843193.188 6  22843193.016 9 122281397.893 6  95107758.000 9  22843193.277 9
  19281132.047 8  19281130.574 9 103177239.346 8  80248971.509 9  19281131.191 9
  22426183.953 6  22426183.586 9 119712506.009 6  93109726.163 9  22426184.672 9
  20304887.219 7  20304885.828 8 108579453.048 7  84450609.935 8  20304886.273 8
 19  5 14 15 46  0.0000000  0 12G05G13G15G20G21G29R01R02R03R17R18R24
  22878684.297 6  22878682.113 9 120228288.056 6  93684368.737 9  22878681.73048
  20909723.484 7                 109881351.190 7  85621823.40248  20909720.32448
  20402972.250 7  20402970.695 9 107218357.001 7  83546769.663 9  20402970.45749
  23268180.953 5                 122275195.955 5  95279309.13547  23268178.69147
  22215945.313 6                 116745593.965 6  90970578.42848  22215941.89548
  21703207.609 7  21703205.879 9 114051118.137 7  88870990.948 9  21703205.48848
  21011232.664 7  21011232.000 9 112317074.272 7  87357730.220 9  21011233.836 9
  19392200.758 8  19392199.738 9 103480514.231 8  80484853.663 9  19392200.441 9
  22820179.094 6  22820178.414 9 122158198.654 6  95011936.391 9  22820179.066 9
  19272472.539 8  19272471.012 9 103130900.833 8  80212930.440 9  19272471.895 9
  22400876.695 6  22400876.898 9 119577414.281 6  93004654.832 9  22400877.508 9
  20317871.227 7  20317870.059 8 108648882.536 7  84504610.636 8  20317870.086 8
 19  5 14 15 46 30.0000000  0 12G05G13G15G20G21G29R01R02R03R17R18R24
  22891689.320 6  22891687.309 9 120296632.002 6  93737623.739 9  22891686.91048
  20909832.914 7                 109881928.237 7  85622273.05648  20909830.10548
  20391597.148 7  20391595.586 9 107158579.966 7  83500190.167 9  20391595.16449
  23248609.375 6                 122172345.887 6  95199166.24647  23248606.49647
  22200741.000 6                 116665696.313 6  90908320.52648  22200738.16048
  21715661.469 7  21715659.453 9 114116561.716 7  88921985.926 9  21715659.09448
  21025393.078 7  21025393.031 9 112392769.205 7  87416604.053 9  21025394.625 9
  19383941.438 8  19383939.656 9 103436440.490 8  80450574.093 9  19383940.762 9
  22797212.594 6  22797211.449 9 122035254.345 6  94916313.061 9  22797211.602 9
  19263949.055 8  19263947.777 9 103085290.780 8  80177455.954 9  19263948.563 9
  22375614.430 6  22375614.441 9 119442559.940 6  92899768.150 9  22375615.285 9
  20330962.883 7  20330961.117 8 108718887.508 7  84559058.932 8  20330961.535 8
 19  5 14 15 47  0.0000000  0 12G05G13G15G20G21G29R01R02R03R17R18R24
  22904712.906 6  22904710.234 9 120365068.596 6  93790950.938 9  22904709.74248
  20910057.328 7                 109883108.050 7  85623192.40148  20910054.53948
  20380331.406 7  20380329.648 9 107099376.128 7  83454057.319 9  20380329.29349
  23229059.516 5                 122069611.912 5  95119113.80647  23229057.04747
  22185571.070 6                 116585976.141 6  90846200.92248  22185567.76248
  21728192.320 7  21728190.652 9 114182412.356 7  88973298.104 9  21728190.31648
  21039596.164 7  21039595.563 9 112468692.944 7  87475655.843 9  21039597.363 9
  19375785.164 8  19375783.859 9 103392917.274 8  80416722.704 9  19375784.848 9
  22774291.617 6  22774291.938 9 121912564.462 6  94820887.621 9  22774292.324 9
  19255561.758 8  19255560.176 9 103040409.216 8  80142548.068 9  19255561.145 9
  22350395.914 6  22350396.359 9 119307944.836 6  92795067.540 9  22350396.879 9
  20344161.508 7  20344159.953 8 108789463.556 7  84613951.399 8  20344159.813 8
 19  5 14 15 47 30.0000000  0 12G05G13G15G20G21G29R01R02R03R17R18R24
  22917752.703 6  22917750.648 9 120433594.938 6  93844348.073 9  22917750.35947
  20910396.305 7                 109884888.207 7  85624579.54648  20910393.25448
  20369174.125 7  20369172.031 9 107040744.570 7  83408370.397 9  20369171.60549
  23209531.141 5                 121966992.853 5  95039150.93047  23209529.04347
  22170433.898 6                 116506433.121 6  90784219.35448  22170430.63748
  21740799.672 6  21740797.918 9 114248665.031 6  89024923.550 9  21740797.46948
  21053841.383 7  21053840.484 9 112544840.782 7  87534881.931 9  21053842.605 9
  19367731.961 8  19367730.586 9 103349942.690 8  80383298.040 9  19367731.516 9
  22751419.648 6  22751419.754 9 121790128.666 6  94725659.797 9  22751420.027 9
  19247310.938 8  19247309.586 9 102996256.390 8  80108206.982 9  19247310.215 9
  22325223.695 7  22325223.578 9 119173570.636 7  92690554.279 9  22325224.121 9
  20357464.523 7  20357463.016 8 108860606.258 7  84669284.605 8  20357464.039 8
 19  5 14 15 48  0.0000000  0 12G05G13G15G20G21G29R01R02R03R17R18R24
  22930810.695 6  22930807.824 9 120502212.783 6  93897816.517 9  22930807.58247
  20910849.523 7                 109887270.291 7  85626435.72848  20910846.65648
  20358126.320 7  20358124.648 9 106982689.740 7  83363132.879 9  20358124.40649
  23190026.141 6                 121864492.016 6  94959280.17447  23190024.02747
  22155332.234 6                 116427071.610 6  90722379.23148  22155328.90248
  21753484.172 7  21753481.852 9 114315320.448 7  89076862.815 9  21753481.64148
  21068127.617 7  21068127.332 9 112621212.689 7  87594282.305 9  21068129.086 9
  19359781.742 8  19359780.766 9 103307518.874 8  80350301.754 9  19359781.422 9
  22728596.195 6  22728595.625 9 121667951.076 6  94630632.812 9  22728596.449 9
  19239196.781 8  19239196.223 9 102952837.429 8  80074436.677 9  19239196.590 9
  22300097.188 7  22300096.375 9 119039443.938 7  92586233.535 9  22300097.371 9
  20370874.969 6  20370874.145 8 108932316.358 6  84725059.109 8  20370874.320 8
 19  5 14 15 48 30.0000000  0 12G05G13G15G20G21G29R01R02R03R17R18R24
  22943885.453 6  22943882.984 9 120570922.605 6  93951356.620 9  22943882.68447
  20911417.820 7                 109890255.104 7  85628761.56348  20911414.51648
  20347189.453 7  20347187.445 9 106925213.851 7  83318346.487 9  20347187.07049
  23170543.523 5                 121762111.572 5  94879503.21647  23170541.80947
  22140265.555 6                 116347894.412 6  90660682.72948  22140262.25848
  21766244.539 7  21766242.672 9 114382376.801 7  89129114.511 9  21766242.31348
  21082456.758 7  21082456.480 9 112697807.643 7  87653856.155 9  21082457.859 9
  19351934.617 9  19351934.109 9 103265646.885 9  80317734.658 9  19351934.484 9
  22705820.820 6  22705820.523 9 121546034.989 6  94535809.217 9  22705821.066 9
  19231220.961 8  19231219.266 9 102910155.809 8  80041239.865 9  19231220.152 9
  22275017.906 7  22275017.418 9 118905570.262 7  92482109.582 9  22275018.133 9
  20384389.984 6  20384389.621 8 109004592.664 6  84781274.007 8  20384389.871 8
 19  5 14 15 49  0.0000000  0 12G05G13G15G20G21G29R01R02R03R17R18R24
  22956977.117 6  22956975.059 9 120639721.878 6  94004966.431 9  22956974.74647
  20912099.422 7                 109893839.562 7  85631554.64748  20912096.37948
  20336361.836 7  20336359.824 9 106868315.836 7  83274010.372 9  20336359.37549
  23151084.125 5                 121659850.213 5  94799819.06747  23151081.92247
  22125234.258 6                 116268901.484 6  90599129.80748  22125230.69148
  21779080.273 7  21779078.523 9 114449829.949 7  89181675.384 9  21779078.02748
  21096826.359 7  21096824.973 9 112774621.047 7  87713599.902 9  21096827.328 9
  19344190.664 8  19344188.996 9 103224323.835 8  80285594.519 9  19344189.695 9
  22683094.305 6  22683094.773 9 121424379.885 6  94441188.589 9  22683095.238 9
  19223382.578 8  19223381.582 9 102868211.928 8  80008616.841 9  19223382.137 9
  22249986.719 7  22249986.785 9 118771951.506 7  92378183.896 9  22249987.605 9
  20398011.875 6  20398010.344 8 109077430.632 6  84837925.748 8  20398010.762 8
 19  5 14 15 49 30.0000000  0 12G05G13G15G20G21G29R01R02R03R17R18R24
  22970087.883 6  22970085.734 9 120708618.448 6  94058652.053 9  22970085.32047
  20912897.469 7                 109898032.202 7  85634821.64148  20912894.66448
  20325646.445 7  20325644.430 9 106812005.972 7  83230132.572 9  20325643.89849
  23131648.273 5                 121557717.634 5  94720235.26447  23131646.93047
  22110238.742 6                 116190103.412 6  90537728.72248  22110235.56348
  21791992.867 7  21791990.891 9 114517686.382 7  89234550.507 9  21791990.75448
  21111238.750 7  21111237.551 9 112851659.333 7  87773518.581 9  21111239.352 9
  19336551.664 9  19336550.242 9 103183559.027 9  80253888.563 9  19336551.367 9
  22660418.328 6  22660419.328 9 121302996.655 6  94346779.431 9  22660419.508 9
  19215684.758 8  19215682.957 9 102827017.265 8  79976576.545 9  19215683.684 9
  22225006.016 6  22225005.445 9 118638600.834 6  92274466.726 9  22225006.355 9
  20411740.023 6  20411739.098 8 109150837.450 6  84895019.926 8  20411738.855 8
 19  5 14 15 50  0.0000000  0 12G05G13G15G20G21G29R01R02R03R17R18R24
  22983215.633 6  22983213.418 9 120777606.062 6  94112408.627 9  22983213.23047
  20913809.539 7                 109902825.763 7  85638556.88148  20913806.97348
  20315042.227 7  20315040.082 9 106756279.480 7  83186709.348 9  20315039.53149
  23112237.188 6                 121455708.816 6  94640747.90247  23112234.94147
  22095280.828 6                 116111496.529 6  90476476.61148  22095277.58248
  21804981.102 7  21804979.039 9 114585937.816 7  89287733.431 9  21804978.58248
  21125689.453 7  21125689.762 9 112928914.140 7  87833605.644 9  21125691.637 8
  19329015.672 8  19329014.176 9 103143345.361 8  80222611.269 9  19329015.074 9
  22637793.875 6  22637793.910 9 121181880.945 6  94252578.339 9  22637794.695 9
  19208125.992 8  19208124.363 9 102786568.000 8  79945115.999 9  19208125.266 9
  22200074.711 6  22200074.160 9 118505516.352 6  92170956.604 9  22200075.074 9
  20425571.656 6  20425570.219 8 109224804.833 6  84952550.096 8  20425570.320 8
 19  5 14 15 50 30.0000000  0 12G05G13G15G20G21G29R01R02R03R17R18R24
  22996360.781 6  22996358.621 9 120846683.071 6  94166234.845 9  22996358.74647
  20914835.703 7                 109908218.818 7  85642759.26548  20914833.30948
  20304548.719 7  20304546.699 9 106701136.579 7  83143740.862 9  20304546.37549
  23092849.195 5                 121353823.930 5  94561357.10447  23092847.00847
  22080358.453 6                 116033081.287 6  90415373.83748  22080355.49648
  21818043.063 6  21818041.242 9 114654581.035 6  89341221.637 9  21818040.89848
  21140181.531 7  21140181.645 9 113006381.854 7  87893858.309 9  21140183.469 9
  19321583.164 8  19321581.699 9 103103682.310 8  80191762.235 9  19321582.645 9
  22615218.609 6  22615219.047 9 121061033.707 6  94158586.075 9  22615219.219 9
  19200705.953 8  19200705.320 9 102746865.632 8  79914236.374 9  19200705.918 9
  22175193.844 6  22175193.637 9 118372701.477 6  92067656.180 9  22175194.613 9
  20439508.273 6  20439507.125 8 109299329.453 6  85010513.674 8  20439506.715 8
 19  5 14 15 51  0.0000000  0 12G05G13G15G20G21G29R01R02R03R17R18R24
  23009523.156 6  23009521.816 9 120915853.080 6  94220133.532 9  23009521.35247
  20915976.828 7                 109914215.059 7  85647431.66048  20915974.32448
  20294167.305 7  20294165.352 9 106646582.722 7  83101231.371 9  20294165.16849
  23073485.398 5                 121252068.030 5  94482066.83947  23073483.50047
  22065474.461 6                 115954863.802 6  90354425.15248  22065470.75048
  21831179.695 6  21831178.289 9 114723617.684 6  89395016.421 9  21831177.70348
  21154713.297 7  21154713.453 9 113084064.755 7  87954278.328 9  21154715.457 9
  19314254.078 8  19314252.355 9 103064573.104 8  80161343.971 9  19314253.152 9
  22592694.102 6  22592694.551 9 120940460.916 6  94064807.245 9  22592695.133 9
  19193427.789 8  19193426.207 9 102707916.700 8  79883942.760 9  19193426.891 9
  22150366.109 6  22150364.590 9 118240164.685 6  91964572.041 9  22150365.402 9
  20453549.344 6  20453548.008 8 109374413.536 6  85068912.387 8  20453548.281 8
 19  5 14 15 51 30.0000000  0 12G05G13G15G20G21G29R01R02R03R17R18R24
  23022702.922 6  23022700.473 9 120985110.238 6  94274100.129 9  23022700.34447
  20917231.578 6                 109920808.210 6  85652569.18248  20917228.81648
  20283897.305 7  20283895.434 9 106592613.705 7  83059177.602 9  20283894.89849
  23054145.664 5                 121150436.686 5  94402873.61047  23054143.57047
  22050626.789 6                 115876841.069 6  90293628.22348  22050623.58648
  21844391.031 6  21844388.973 9 114793040.059 6  89449111.765 9  21844388.78148
  21169285.094 7  21169284.781 9 113161954.813 7  88014859.482 9  21169286.922 9
  19307027.266 9  19307025.828 9 103026012.676 9  80131352.536 9  19307026.859 9
  22570220.414 6  22570221.230 9 120820159.176 6  93971239.258 9  22570221.641 9
  19186289.367 8  19186287.402 9 102669718.240 8  79854232.839 9  19186288.234 9
  22125588.359 6  22125587.813 9 118107904.686 6  91861703.176 9  22125588.516 9
  20467693.813 6  20467692.473 8 109450049.303 6  85127740.191 8  20467692.551 8
 19  5 14 15 52  0.0000000  0 12G05G13G15G20G21G29R01R02R03R17R18R24
  23035897.477 6  23035895.289 9 121054450.901 6  94328131.794 9  23035895.22747
  20918599.227 7                 109927994.531 7  85658168.92148  20918596.27348
  20273738.328 7  20273736.188 9 106539227.795 7  83017578.193 9  20273735.66849
  23034829.156 5                 121048928.028 5  94323775.99847  23034826.64847
  22035816.500 6                 115799011.989 6  90232982.19248  22035813.73048
  21857674.109 6  21857671.910 9 114862843.073 6  89503503.714 9  21857671.45348
  21183893.000 7  21183892.875 9 113240046.601 7  88075597.538 9  21183895.184 8
  19299902.930 8  19299902.219 9 102987997.307 8  80101785.041 9  19299902.961 9
  22547796.992 6  22547798.578 9 120700127.033 6  93877880.940 9  22547798.703 9
  19179291.203 8  19179290.492 9 102632269.462 8  79825106.011 9  19179291.211 9
  22100863.844 6  22100863.527 9 117975922.663 6  91759050.523 9  22100864.234 9
  20481940.375 6  20481938.359 8 109526231.376 6  85186992.896 8  20481938.738 8
 19  5 14 15 52 30.0000000  0 12G05G13G15G20G21G29R01R02R03R17R18R24
  23049109.508 6  23049107.723 9 121123880.485 6  94382232.759 9  23049107.27047
  20920080.328 7                 109935778.978 7  85664234.72648  20920077.58648
  20263691.992 7  20263690.051 9 106486432.336 7  82976438.895 9  20263689.89549
  23015536.969 5                 120947548.644 5  94244779.10347  23015534.91847
  22021044.422 6                 115721384.120 6  90172492.95648  22021041.27348
  21871030.172 6  21871028.375 9 114933029.985 6  89558194.803 9  21871027.77348
  21198541.195 7  21198540.352 9 113318343.989 7  88136495.499 9  21198542.148 9
  19292882.219 8  19292881.188 9 102950532.641 8  80072645.863 9  19292881.887 9
  22525427.305 6  22525426.648 9 120580372.351 6  93784738.432 9  22525427.148 9
  19172434.563 8  19172432.664 9 102595578.646 8  79796568.702 9  19172433.262 9
  22076192.141 6  22076192.898 9 117844228.902 6  91656622.081 9  22076193.660 9
  20496289.875 6  20496287.406 8 109602963.748 6  85246673.621 8  20496287.777 8
 19  5 14 15 53  0.0000000  0 12G05G13G15G20G21G29R01R02R03R17R18R24
  23062337.859 6  23062335.770 9 121193394.887 6  94436399.791 9  23062335.24647
  20921675.133 7                 109944156.639 7  85670762.77748  20921671.80148
  20253756.891 7  20253754.746 9 106434224.527 7  82935757.495 9  20253754.41849
  22996269.273 5                 120846296.299 5  94165881.20747  22996267.50447
  22006310.477 6                 115643956.088 6  90112159.43248  22006307.42648
  21884458.594 6  21884456.055 9 115003594.942 6  89613180.474 9  21884456.02348
  21213224.922 7  21213224.516 9 113396840.962 7  88197548.698 9  21213226.531 8
  19285963.945 8  19285962.883 9 102913614.711 8  80043931.923 9  19285963.375 9
  22503107.680 6  22503107.754 9 120460893.182 6  93691810.218 9  22503108.035 9
  19165719.648 8  19165718.516 9 102559644.298 8  79768619.762 9  19165719.160 9
  22051576.578 6  22051575.883 9 117712824.197 6  91554418.469 9  22051576.855 9
  20510740.570 6  20510739.066 8 109680240.205 6  85306777.516 8  20510739.035 8
 19  5 14 15 53 30.0000000  0 12G05G13G15G20G21G29R01R02R03R17R18R24
  23075582.203 5  23075580.676 9 121262995.271 5  94490633.833 9  23075580.21547
  20923381.867 6                 109953129.661 6  85677754.75548  20923379.21548
  20243934.703 7  20243932.387 9 106382607.201 7  82895536.215 9  20243932.19949
  22977026.617 5                 120745173.602 5  94087084.33347  22977024.17647
  21991615.211 6                 115566731.879 6  90051984.72948  21991612.02348
  21897958.313 6  21897956.488 9 115074537.320 6  89668460.239 9  21897956.02748
  21227947.320 6  21227946.234 9 113475537.126 6  88258756.803 9  21227948.219 9
  19279148.250 8  19279147.352 9 102877244.863 8  80015644.272 9  19279148.160 9
  22480839.023 6  22480839.750 9 120341693.405 6  93599099.317 9  22480839.949 9
  19159146.648 8  19159145.402 9 102524470.475 8  79741262.342 9  19159146.063 9
  22027014.297 6  22027014.238 9 117581714.573 6  91452444.351 9  22027015.469 9
  20525292.930 6  20525291.895 8 109758060.479 6  85367304.394 8  20525292.016 8
 19  5 14 15 54  0.0000000  0 12G05G13G15G20G21G29R01R02R03R17R18R24
  23088843.789 6  23088841.848 9 121332684.749 6  94544937.297 9  23088841.22347
  20925203.305 6                 109962700.422 6  85685212.49848  20925200.36748
  20234225.508 7  20234223.621 9 106331585.638 7  82855779.179 9  20234223.32849
  22957808.758 5                 120644185.096 5  94008392.02747  22957806.50047
  21976959.883 6                 115489716.923 6  89991973.08048  21976956.73448
  21911530.297 6  21911528.477 9 115145858.734 6  89724035.347 9  21911528.08248
  21242706.141 7  21242705.672 9 113554433.928 7  88320120.968 9  21242707.484 8
  19272436.039 8  19272434.531 9 102841426.813 8  79987785.799 9  19272435.480 9
  22458625.766 6  22458625.742 9 120222778.436 6  93506609.937 9  22458626.047 9
  19152717.070 8  19152715.160 9 102490063.193 8  79714501.115 9  19152715.813 9
  22002510.156 6  22002509.664 9 117450908.245 6  91350706.129 9  22002510.863 9
  20539947.883 6  20539946.594 8 109836426.373 6  85428255.626 8  20539946.785 8
 19  5 14 15 54 30.0000000  0 12G05G13G15G20G21G29R01R02R03R17R18R24
  23102120.617 6  23102118.434 9 121402453.680 6  94599302.674 9  23102118.32847
  20927136.383 6                 109972858.810 6  85693128.12548  20927133.30948
  20224628.266 7  20224625.910 9 106281151.203 7  82816479.632 9  20224625.40249
  22938615.656 5                 120543322.742 5  93929798.03347  22938613.38747
  21962342.695 6                 115412904.000 6  89932118.86348  21962339.55948
  21925172.180 6  21925169.738 9 115217547.068 6  89779896.373 9  21925169.71548
  21257500.484 6  21257500.969 9 113633519.944 6  88381632.312 9  21257502.668 8
  19265825.328 8  19265824.395 9 102806150.473 8  79960348.652 9  19265824.813 9
  22436461.891 6  22436462.965 9 120104140.688 6  93414336.170 9  22436463.680 9
  19146429.047 8  19146427.891 9 102456415.245 8  79688330.489 9  19146428.098 9
  21978061.969 7  21978061.289 9 117320400.058 7  91249199.798 9  21978062.258 9
  20554702.484 6  20554701.547 8 109915325.854 6  85489621.885 8  20554702.125 8
 19  5 14 15 55  0.0000000  0 12G05G13G15G20G21G29R01R02R03R17R18R24
  23115414.641 6  23115413.004 9 121472314.147 6  94653739.374 9  23115412.44947
  20929183.367 6                 109983616.335 6  85701510.61848  20929180.71148
  20215145.094 7  20215143.082 9 106231317.847 7  82777648.459 9  20215142.71149
  22919448.664 5                 120442599.715 5  93851312.58147  22919446.44547
  21947766.828 6                 115336307.484 6  89872433.27348  21947763.92648
  21938885.844 6  21938883.816 9 115289612.561 6  89836051.291 9  21938883.53148
  21272331.906 6  21272332.055 9 113712805.195 6  88443298.604 9  21272334.258 9
  19259318.531 8  19259317.223 9 102771428.160 8  79933342.417 9  19259317.980 9
  22414353.930 6  22414354.320 9 119985794.474 6  93322289.131 9  22414354.945 9
  19140284.852 8  19140283.910 9 102423541.101 8  79662761.707 9  19140284.688 9
  21953672.516 7  21953672.137 9 117190206.672 7  91147938.308 9  21953673.152 9
  20569559.953 6  20569558.230 8 109994769.123 6  85551411.083 8  20569558.504 8
 19  5 14 15 55 30.0000000  0 12G05G13G15G20G21G29R01R02R03R17R18R24
  23128724.773 6  23128722.789 9 121542259.934 6  94708242.565 9  23128722.62947
  20931343.398 6                 109994966.442 6  85710354.86248  20931340.45748
  20205775.672 7  20205773.457 9 106182081.154 7  82739282.219 9  20205773.20749
  22900307.531 5                 120342011.736 5  93772932.36947  22900305.36747
  21933232.320 6                 115259924.064 6  89812913.73648  21933228.62148
  21952669.547 6  21952667.617 9 115362047.239 6  89892493.891 9  21952667.24648
  21287200.633 6  21287199.820 9 113792282.186 6  88505114.048 9  21287202.250 8
  19252914.125 9  19252912.824 9 102737253.336 9  79906762.002 9  19252913.453 9
  22392300.719 6  22392300.336 9 119867736.081 6  93230465.952 9  22392300.926 9
  19134286.219 8  19134284.613 9 102391437.628 8  79637792.344 9  19134285.430 9
  21929341.734 7  21929340.941 9 117060327.108 7  91046920.897 9  21929341.754 9
  20584516.031 6  20584513.461 8 110074748.332 6  85613617.125 8  20584514.543 8
 19  5 14 15 56  0.0000000  0 12G05G13G15G20G21G29R01R02R03R17R18R24
  23142050.461 6  23142048.215 9 121612286.162 6  94762808.435 9  23142048.05147
  20933614.664 6                 110006903.939 6  85719656.81148  20933611.86348
  20196518.969 7  20196517.262 9 106133437.088 7  82701377.757 9  20196516.96949
  22881191.266 5                 120241555.415 5  93694654.73647  22881188.85547
  21918736.492 6                 115183751.296 6  89753558.33648  21918733.26248
  21966522.313 6  21966520.395 9 115434844.396 6  89949218.930 9  21966520.18448
  21302102.648 6  21302103.586 9 113871944.208 6  88567073.373 9  21302104.988 8
  19246611.492 8  19246610.145 9 102703621.582 8  79880603.980 9  19246611.215 9
  22370299.805 7  22370299.254 9 119749962.921 7  93138864.628 9  22370299.875 9
  19128430.563 8  19128428.703 9 102360102.257 8  79613420.382 9  19128429.461 9
  21905070.266 7  21905068.297 9 116930761.368 7  90946147.561 9  21905069.621 9
  20599571.156 6  20599569.965 8 110155256.607 6  85676234.662 8  20599570.012 8
 19  5 14 15 56 30.0000000  0 12G05G13G15G20G21G29R01R02R03R17R18R24
  23155390.992 6  23155389.246 9 121682391.945 6  94817436.292 9  23155388.71147
  20935998.031 6                 110019427.192 6  85729415.18848  20935995.41048
  20187375.531 7  20187373.578 9 106085386.597 7  82663935.828 9  20187373.18449
  22862100.078 6                 120141230.941 6  93616479.86547  22862098.05147
  21904281.500 6                 115107790.475 6  89694368.08648  21904278.23048
  21980443.531 6  21980441.379 9 115508000.885 6  90006223.980 9  21980441.11748
  21317038.508 6  21317039.496 8 113951788.224 6  88629174.289 8  21317041.555 8
  19240410.477 8  19240409.641 9 102670532.098 8  79854867.725 9  19240410.020 9
  22348351.820 6  22348352.070 9 119632475.691 6  93047485.711 9  22348352.559 9
  19122717.953 8  19122716.766 9 102329536.085 8  79589646.695 9  19122717.836 9
  21880857.742 7  21880856.500 9 116801513.142 7  90845621.177 9  21880857.707 9
  20614724.227 6  20614723.652 8 110236291.168 6  85739261.534 8  20614724.086 8
 19  5 14 15 57  0.0000000  0 12G05G13G15G20G21G29R01R02R03R17R18R24
  23168746.844 6  23168744.746 9 121752577.334 6  94872126.184 9  23168744.60247
  20938492.555 6                 110032535.502 6  85739629.45948  20938489.96948
  20178344.648 7  20178342.371 9 106037930.848 7  82626957.334 9  20178342.12549
  22843034.672 6                 120041040.106 6  93538409.11547  22843032.43047
  21889867.820 6                 115032044.382 6  89635345.16648  21889864.40248
  21994433.047 6  21994431.039 9 115581514.954 6  90063507.665 9  21994430.90648
  21332009.188 6  21332008.813 9 114031812.767 6  88691415.595 9  21332011.094 8
  19234311.344 8  19234310.277 9 102637984.359 8  79829552.826 9  19234310.781 9
  22326457.789 6  22326457.719 9 119515276.910 6  92956331.140 9  22326457.746 9
  19117149.938 8  19117148.586 9 102299742.031 8  79566473.535 9  19117149.582 9
  21856704.961 7  21856703.852 9 116672587.214 7  90745345.474 9  21856704.934 9
  20629977.227 6  20629974.672 8 110317849.689 6  85802695.921 8  20629975.359 8
 19  5 14 15 57 30.0000000  0 12G05G13G15G20G21G29R01R02R03R17R18R24
  23182119.719 6  23182117.574 9 121822851.304 6  94926885.103 9  23182117.36747
  20941099.680 7                 110046237.780 7  85750306.55448  20941097.10948
  20169429.422 7  20169427.332 9 105991080.379 7  82590450.484 9  20169426.75449
  22823996.375 6                 119940992.907 6  93460450.29747  22823994.03547
  21875496.602 6                 114956524.207 6  89576498.28148  21875493.25048
  22008491.766 6  22008489.555 9 115655393.631 6  90121075.454 9  22008488.93848
  21347013.438 6  21347015.074 8 114112024.905 6  88753802.782 8  21347016.566 8
  19228315.344 8  19228313.504 9 102605987.522 8  79804666.408 9  19228314.363 9
  22304620.211 6  22304620.348 9 119398377.681 6  92865409.557 9  22304620.789 9
  19111729.234 8  19111728.082 9 102270731.250 8  79543909.591 9  19111728.598 9
  21832615.938 7  21832615.199 9 116543997.395 7  90645331.197 9  21832616.047 9
  20645328.516 6  20645326.676 8 110399939.750 6  85866543.727 8  20645326.918 8
 19  5 14 15 58  0.0000000  0 12G05G13G15G20G21G29R01R02R03R17R18R24
  23195507.984 6  23195506.465 9 121893207.933 6  94981708.423 9  23195506.24647
  20943819.453 6                 110060527.670 6  85761441.53048  20943816.78548
  20160628.383 7  20160626.680 9 105944830.857 7  82554411.903 9  20160626.21949
  22804984.289 6                 119841085.521 6  93382600.41547  22804981.60547
  21861168.102 6                 114881226.978 6  89517825.11548  21861164.53948
  22022618.141 6  22022616.129 9 115729629.226 6  90178921.365 9  22022615.71548
  21362053.781 6  21362054.375 8 114192417.678 6  88816330.488 8  21362055.992 8
  19222420.609 8  19222419.063 9 102574535.899 8  79780204.046 9  19222420.066 9
  22282838.633 6  22282838.301 9 119281774.801 6  92774718.469 9  22282838.438 9
  19106453.602 8  19106452.512 9 102242500.636 8  79521952.439 9  19106453.406 9
  21808589.453 7  21808588.406 9 116415742.800 7  90545577.645 9  21808589.063 9
  20660776.742 6  20660774.645 8 110482553.443 6  85930798.802 8  20660775.641 8
 19  5 14 15 58 30.0000000  0 12G05G13G15G20G21G29R01R02R03R17R18R24
  23208911.219 6  23208909.074 9 121963640.181 6  95036590.653 9  23208908.48847
  20946649.109 7                 110075397.610 7  85773028.50448  20946646.22748
  20151940.578 7  20151938.469 9 105899176.983 7  82518837.466 9  20151938.14549
  22785998.547 5                 119741312.458 5  93304855.19747  22785995.70747
  21846880.844 6                 114806148.459 6  89459322.38148  21846877.31648
  22036811.125 6  22036808.570 9 115804212.652 6  90237038.314 9  22036808.46548
  21377124.453 6  21377125.297 8 114272982.141 6  88878991.737 8  21377126.727 8
  19216627.094 8  19216626.500 9 102543622.271 8  79756160.121 9  19216627.270 9
  22261109.445 7  22261109.770 9 119165463.123 7  92684253.857 9  22261110.301 9
  19101323.203 8  19101321.633 9 102215045.517 8  79500598.451 9  19101322.379 9
  21784625.273 7  21784624.746 9 116287821.614 7  90446083.406 9  21784625.605 9
  20676323.227 6  20676321.801 8 110565681.771 6  85995454.158 8  20676321.809 8
 19  5 14 15 59  0.0000000  0 12G05G13G15G20G21G29R01R02R03R17R18R24
  23222328.609 6  23222326.348 9 122034148.851 6  95091532.445 9  23222326.34447
  20949588.953 7                 110090847.466 7  85785067.35448  20949586.10248
  20143367.148 7  20143364.750 9 105854120.294 7  82483728.368 9  20143364.25449
  22767037.430 6                 119641675.552 6  93227216.08147  22767035.34447
  21832636.047 6                 114731290.925 6  89400991.83748  21832632.75848
  22051069.820 6  22051067.227 9 115879142.645 6  90295425.312 9  22051066.99648
  21392227.875 6  21392228.391 8 114353717.252 6  88941785.713 8  21392230.434 8
  19210935.180 8  19210933.848 9 102513247.364 8  79732535.204 9  19210934.441 9
  22239436.992 6  22239437.082 9 119049445.438 6  92594017.911 9  22239437.438 9
  19096337.352 8  19096336.793 9 102188368.562 8  79479849.698 9  19096337.707 9
  21760724.305 7  21760723.453 9 116160238.941 7  90346852.452 9  21760724.332 9
  20691964.758 6  20691963.125 8 110649323.463 6  86060508.799 8  20691963.012 8
 19  5 14 15 59 30.0000000  0 12G05G13G15G20G21G29R01R02R03R17R18R24
  23235761.734 6  23235760.129 9 122104741.822 6  95146539.939 9  23235759.56347
  20952640.570 6                 110106884.613 6  85797563.83548  20952637.84448
  20134907.898 7  20134906.066 9 105809669.993 7  82449091.780 9  20134905.77049
  22748105.055 6                 119542183.852 6  93149690.10247  22748102.33247
  21818435.172 6                 114656664.977 6  89342841.75448  21818431.43048
  22065395.430 6  22065392.969 9 115954424.838 6  90354086.754 9  22065392.71148
  21407364.883 6  21407364.168 8 114434629.122 6  89004717.151 8  21407366.316 8
  19205345.750 8  19205344.398 9 102483418.718 8  79709335.149 9  19205345.281 9
  22217819.734 6  22217820.289 9 118933731.784 6  92504018.436 9  22217820.699 9
  19091499.734 8  19091498.289 9 102162479.942 8  79459714.104 9  19091499.113 9
  21736890.086 7  21736889.777 9 116033007.646 7  90247894.808 9  21736890.285 9
  20707702.531 6  20707701.410 8 110733483.806 6  86125966.813 8  20707701.574 8
 19  5 14 16  0  0.0000000  0 12G05G13G15G20G21G29R01R02R03R17R18R24
  23249208.813 6  23249206.918 9 122175403.654 6  95201601.073 9  23249206.53947
  20955801.344 6                 110123492.743 6  85810505.23448  20955798.22348
  20126562.219 7  20126560.094 9 105765812.141 7  82414916.845 9  20126559.81649
  22729197.219 6                 119442823.771 6  93072266.68347  22729195.22747
  21804275.883 6                 114582257.762 6  89284862.11348  21804272.47348
  22079785.328 6  22079783.074 9 116030041.921 6  90413009.147 9  22079782.69148
  21422531.328 6  21422531.074 8 114515700.502 6  89067772.649 8  21422532.563 8
  19199855.258 8  19199854.105 9 102454120.631 8  79686547.762 9  19199854.816 9
  22196258.180 6  22196258.813 9 118818308.577 6  92414244.867 9  22196259.383 9
  19086806.969 8  19086805.250 9 102137366.199 8  79440181.188 9  19086806.113 9
  21713119.211 7  21713118.316 9 115906116.924 7  90149202.053 9  21713119.016 9
  20723534.547 6  20723533.051 8 110818145.705 6  86191814.945 8  20723533.535 8
 19  5 14 16  0 30.0000000  0 12G05G13G15G20G21G29R01R02R03R17R18R24
  23262668.867 6  23262666.887 9 122246139.217 6  95256719.659 9  23262666.34847
  20959071.484 6                 110140676.475 6  85823895.15848  20959068.37548
  20118330.172 7  20118328.281 9 105722552.841 7  82381208.310 9  20118328.04349
  22710316.500 5                 119343601.921 5  92994950.97247  22710313.85247
  21790159.945 6                 114508076.805 6  89227058.77148  21790156.32848
  22094238.758 6  22094236.211 9 116105996.839 6  90472194.782 9  22094235.99648
  21437726.023 6  21437727.055 8 114596934.710 6  89130954.828 8  21437728.961 8
  19194464.547 8  19194463.496 9 102425357.630 8  79664176.544 9  19194464.102 9
  22174752.172 6  22174752.145 9 118703183.079 6  92324702.851 9  22174752.727 9
  19082260.039 8  19082258.578 9 102113034.517 8  79421256.548 9  19082259.414 9
  21689414.273 7  21689413.168 9 115779576.558 7  90050781.790 9  21689414.297 9
  20739461.148 6  20739459.219 8 110903311.978 6  86258055.373 8  20739460.281 8
 19  5 14 16  1  0.0000000  0 12G05G13G15G20G21G29R01R02R03R17R18R24
  23276143.586 6  23276141.891 9 122316947.956 6  95311895.264 9  23276141.38347
  20962450.164 6                 110158434.154 6  85837732.31748  20962447.48848
  20110212.367 7  20110210.102 9 105679892.410 7  82347966.426 9  20110209.87949
  22691461.508 5                 119244518.667 5  92917743.26747  22691458.90247
  21776086.914 6                 114434123.840 6  89169433.09048  21776083.68848
  22108756.047 6  22108753.859 9 116182286.709 6  90531641.421 9  22108753.71548
  21452953.781 6  21452954.820 9 114678329.437 6  89194261.835 9  21452956.473 8
  19189174.406 8  19189173.820 9 102397129.226 8  79642221.128 9  19189174.672 9
  22153300.227 7  22153301.551 9 118588356.478 7  92235393.306 9  22153301.809 9
  19077859.039 8  19077857.754 9 102089486.366 8  79402941.317 9  19077858.680 9
  21665774.555 7  21665773.895 9 115653390.700 7  89952637.251 9  21665775.148 9
  20755482.047 6  20755480.730 8 110988979.756 6  86324685.854 8  20755480.586 8
 19  5 14 16  1 30.0000000  0 12G05G13G15G20G21G29R01R02R03R17R18R24
  23289632.414 6  23289630.063 9 122387831.820 6  95367129.412 9  23289629.62547
  20965938.938 6                 110176767.146 6  85852017.76448  20965936.00448
  20102208.875 7  20102206.719 9 105637834.402 7  82315193.959 9  20102206.38749
  22672633.172 5                 119145577.398 5  92840646.19647  22672630.66047
  21762058.586 6                 114360403.401 6  89111988.59448  21762055.46148
  22123337.727 6  22123335.211 9 116258911.748 6  90591349.236 9  22123335.05148
  21468210.445 6  21468210.512 8 114759885.125 6  89257694.025 8  21468212.488 8
  19183985.102 8  19183984.418 9 102369437.145 8  79620682.848 9  19183985.289 9
  22131907.555 6  22131906.738 9 118473833.161 6  92146319.642 9  22131907.578 9
  19073606.133 8  19073604.906 9 102066725.803 8  79385238.647 9  19073605.531 9
  21642204.008 7  21642204.211 9 115527566.292 7  89854773.845 9  21642204.523 9
  20771595.469 6  20771593.996 8 111075148.972 6  86391706.349 8  20771594.668 8
 19  5 14 16  2  0.0000000  0 12G05G13G15G20G21G29R01R02R03R17R18R24
  23303135.477 6  23303134.000 9 122458793.384 6  95422424.118 9  23303133.37547
  20969537.328 6                 110195677.431 6  85866753.05448  20969534.53548
  20094320.984 7  20094318.867 9 105596382.056 7  82282893.429 9  20094318.36749
  22653833.633 5                 119046782.267 5  92763663.00547  22653830.48847
  21748075.141 6                 114286920.517 6  89054729.21548  21748071.48448
  22137982.313 6  22137980.383 9 116335872.102 6  90651318.337 9  22137980.21148
  21483497.938 6  21483498.527 8 114841602.924 6  89321252.318 8  21483499.922 8
  19178896.617 8  19178895.828 9 102342283.787 8  79599563.577 9  19178896.664 9
  22110571.406 6  22110570.629 9 118359617.655 6  92057485.398 9  22110571.176 9
  19069500.734 8  19069499.090 9 102044757.588 8  79368152.251 9  19069499.676 9
  21618702.055 7  21618700.426 9 115402110.718 7  89757197.310 9  21618701.668 9
  20787804.109 6  20787801.543 8 111161820.096 6  86459117.201 8  20787802.738 8
 19  5 14 16  2 30.0000000  0 12G05G13G15G20G21G29R01R02R03R17R18R24
  23316652.664 6  23316650.406 9 122529824.065 6  95477772.674 9  23316650.21147
  20973244.047 7                 110215155.874 7  85881931.05848  20973241.48048
  20086546.758 7  20086544.414 9 105555529.033 7  82251059.915 9  20086544.10549
  22635059.547 5                 118948126.500 5  92686788.39547  22635057.07047
  21734135.773 6                 114213669.837 6  88997650.76548  21734132.66848
  22152689.164 6  22152687.395 9 116413158.047 6  90711541.146 9  22152687.09848
  21498812.742 6  21498813.191 8 114923472.481 6  89384928.619 8  21498814.840 8
  19173907.867 8  19173906.391 9 102315660.813 8  79578856.829 9  19173907.410 9
  22089290.391 6  22089290.305 9 118245703.736 6  91968885.730 9  22089291.125 9
  19065542.172 8  19065540.191 9 102023575.489 8  79351677.278 9  19065541.180 9
  21595267.906 7  21595267.328 9 115277020.848 7  89659905.213 9  21595268.164 9
  20804102.961 6  20804102.109 8 111248982.703 6  86526910.327 8  20804102.539 8
 19  5 14 16  3  0.0000000  0 12G05G13G15G20G21G29R01R02R03R17R18R24
  23330181.828 6  23330180.023 9 122600922.159 6  95533173.755 9  23330179.81347
  20977058.008 6                 110235198.884 6  85897548.99448  20977055.13748
  20078886.258 7  20078883.902 9 105515273.555 7  82219692.019 9  20078883.69949
  22616312.367 5                 118849609.000 5  92610021.53747  22616309.84847
  21720240.953 6                 114140650.667 6  88940752.71448  21720237.64848
  22167457.820 6  22167455.879 9 116490764.331 6  90772013.563 9  22167455.22348
  21514155.930 6  21514155.863 8 115005489.913 6  89448719.959 8  21514157.977 8
  19169017.570 9  19169015.719 9 102289564.661 9  79558559.832 9  19169016.594 9
  22068066.859 6  22068067.027 9 118132090.738 6  91880520.102 9  22068067.734 9
  19061730.844 8  19061729.465 9 102003178.543 8  79335812.979 9  19061730.309 9
  21571903.000 7  21571902.586 9 115152298.525 7  89562898.977 9  21571903.711 9
  20820494.438 6  20820492.633 8 111336631.841 6  86595081.867 8  20820493.137 8
 19  5 14 16  3 30.0000000  0 12G05G13G15G20G21G29R01R02R03R17R18R24
  23343723.219 6  23343721.793 9 122672081.575 6  95588622.628 9  23343721.16847
  20980978.578 6                 110255799.943 6  85913601.77148  20980975.73448
  20071338.594 7  20071336.508 9 105475610.822 7  82188786.006 9  20071336.27749
  22597590.820 5                 118751225.297 5  92533358.93047  22597587.89547
  21706389.055 6                 114067859.913 6  88884032.64648  21706385.89548
  22182284.766 6  22182283.367 9 116568683.210 6  90832729.570 9  22182282.89548
  21529525.594 6  21529525.570 8 115087647.757 6  89512620.501 8  21529527.094 8
  19164224.820 8  19164223.535 9 102263989.969 8  79538668.416 9  19164224.215 9
  22046899.148 6  22046898.504 9 118018774.745 6  91792385.479 9  22046898.938 9
  19058065.063 8  19058063.766 9 101983562.938 8  79320556.396 9  19058064.527 9
  21548606.750 7  21548607.391 9 115027942.776 7  89466177.863 9  21548608.469 9
  20836974.242 6  20836973.215 8 111424759.640 6  86663625.690 8  20836973.320 8
 19  5 14 16  4  0.0000000  0 12G05G13G15G20G21G29R01R02R03R17R18R24
  23357277.414 6  23357275.750 9 122743309.541 6  95644124.919 9  23357275.35947
  20985006.406 7                 110276966.121 7  85930094.90548  20985003.08248
  20063905.555 7  20063903.469 9 105436549.174 7  82158348.375 9  20063903.16849
  22578896.148 6                 118652984.775 6  92456807.88747  22578893.64147
  21692582.852 7                 113995307.656 7  88827498.42348  21692579.62548
  22197172.586 6  22197170.992 9 116646920.086 6  90893693.368 9  22197170.71148
  21544923.117 6  21544922.332 8 115169951.818 6  89576634.747 8  21544924.156 8
  19159531.086 8  19159530.121 9 102238943.569 8  79519187.891 9  19159530.527 9
  22025787.328 6  22025786.949 9 117905765.576 6  91704489.493 9  22025787.316 9
  19054546.797 8  19054545.676 9 101964737.975 8  79305914.753 9  19054546.578 9
  21525382.367 7  21525381.359 9 114903966.219 7  89369751.669 9  21525382.289 9
  20853544.961 6  20853543.879 8 111513371.428 6  86732545.954 8  20853544.543 8
 19  5 14 16  4 30.0000000  0 12G05G13G15G20G21G29R01R02R03R17R18R24
  23370844.141 6  23370842.578 9 122814603.592 6  95699678.695 9  23370842.21947
  20989140.984 7                 110298693.529 7  85947025.36748  20989138.02748
  20056586.414 7  20056584.090 9 105398087.136 7  82128377.957 9  20056583.55549
  22560228.352 6                 118554885.412 6  92380366.85347  22560225.62547
  21678822.188 6                 113922993.457 6  88771149.69948  21678818.85548
  22212120.344 6  22212118.766 9 116725470.184 6  90954901.232 9  22212118.35548
  21560345.008 6  21560345.801 8 115252397.731 6  89640759.350 8  21560347.242 8
  19154935.961 8  19154934.543 9 102214422.258 8  79500115.766 9  19154935.160 9
  22004733.531 6  22004733.184 9 117793062.363 6  91616831.483 9  22004733.664 9
  19051176.633 8  19051174.934 9 101946702.968 8  79291887.517 9  19051175.922 9
  21502228.508 7  21502227.754 9 114780370.790 7  89273621.912 9  21502228.504 9
  20870206.180 6  20870205.008 8 111602462.057 6  86801838.648 8  20870204.867 8
 19  5 14 16  5  0.0000000  0 12G05G13G15G20G21G29R01R02R03R17R18R24
  23384424.000 6  23384422.117 9 122885966.979 6  95755286.489 9  23384421.98847
  20993382.492 7                 110320984.817 7  85964395.21048  20993378.82848
  20049382.203 7  20049380.254 9 105360228.944 7  82098878.079 9  20049379.82449
  22541588.531 5                 118456932.384 5  92304039.84647  22541585.71547
  21665107.617 7                 113850922.970 7  88714990.88148  21665104.11348
  22227127.813 6  22227126.086 9 116804334.883 6  91016354.234 9  22227125.87548
  21575794.625 6  21575795.590 9 115334987.663 6  89704995.972 9  21575797.512 8
  19150439.148 9  19150437.984 9 102190429.630 9  79481454.836 9  19150438.746 9
  21983737.625 6  21983736.582 9 117680670.503 6  91529415.634 9  21983737.117 9
  19047955.305 8  19047953.824 9 101929462.984 8  79278478.634 9  19047954.473 9
  21479147.672 7  21479147.520 9 114657164.994 7  89177795.213 9  21479148.398 9
  20886956.328 6  20886955.313 8 111692032.866 6  86871504.825 8  20886955.230 8
 19  5 14 16  5 30.0000000  0 12G05G13G15G20G21G29R01R02R03R17R18R24
  23398016.977 6  23398015.617 9 122957398.435 6  95810947.335 9  23398015.04347
  20997731.391 7                 110343836.867 7  85982202.00848  20997728.52348
  20042292.664 7  20042290.867 9 105322974.235 7  82069848.445 9  20042290.39849
  22522976.406 5                 118359125.360 5  92227826.60747  22522973.47347
  21651439.406 7                 113779097.118 7  88659022.68948  21651436.59848
  22242194.875 6  22242192.930 9 116883510.111 6  91078049.200 9  22242192.55548
  21591272.102 6  21591272.117 8 115417718.047 6  89769341.783 8  21591274.129 8
  19146041.461 8  19146040.414 9 102166963.043 8  79463203.054 9  19146041.164 9
  21962799.641 6  21962800.148 9 117568590.307 6  91442242.182 9  21962800.641 9
  19044881.945 8  19044880.426 9 101913018.215 8  79265688.258 9  19044881.578 9
  21456140.711 7  21456140.340 9 114534351.908 7  89082273.938 9  21456141.121 9
  20903794.867 6  20903794.641 8 111782079.790 6  86941541.310 8  20903794.180 8
 19  5 14 16  6  0.0000000  0 12G05G13G15G20G21G29R01R02R03R17R18R24
  23411623.078 6  23411621.633 9 123028899.116 6  95866662.119 9  23411620.85547
  21002186.477 7                 110367250.870 7  86000446.69148  21002183.68448
  20035318.875 7  20035316.500 9 105286325.177 7  82041290.746 9  20035316.42249
  22504392.891 6                 118261467.254 6  92151729.40247  22504389.92247
  21637818.953 7                 113707520.086 7  88603248.38348  21637815.35948
  22257320.203 6  22257317.941 9 116962995.319 6  91139985.711 9  22257317.80148
  21606774.133 6  21606774.469 9 115500588.852 6  89833796.856 9  21606776.531 8
  19141742.906 9  19141741.648 9 102144024.003 9  79445361.584 9  19141742.668 9
  21941921.180 6  21941921.055 9 117456825.221 6  91355313.816 9  21941921.602 9
  19041958.266 8  19041956.730 9 101897371.687 8  79253518.728 9  19041957.957 9
  21433209.141 7  21433207.852 9 114411937.785 7  88987062.980 9  21433209.152 9
  20920723.984 6  20920722.281 8 111872602.030 6  87011947.483 8  20920722.707 8
 19  5 14 16  6 30.0000000  0 12G05G13G15G20G21G29R01R02R03R17R18R24
  23425242.813 6  23425240.977 9 123100469.747 6  95922431.440 9  23425240.63747
  21006749.297 6                 110391226.854 6  86019129.27548  21006746.23448
  20028460.555 7  20028458.516 9 105250284.018 7  82013206.733 9  20028458.25849
  22485837.953 5                 118163960.666 5  92075750.27047  22485835.23847
  21624246.281 7                 113636195.434 7  88547670.73348  21624242.98448
  22272504.727 6  22272502.461 9 117042789.767 6  91202163.185 9  22272502.34448
  21622303.484 6  21622304.090 9 115583599.765 6  89898360.880 9  21622305.633 8
  19137542.828 9  19137542.297 9 102121613.283 9  79427931.029 9  19137543.059 9
  21921102.391 6  21921101.945 9 117345378.089 6  91268632.744 9  21921102.355 9
  19039184.156 8  19039182.773 9 101882526.127 8  79241972.171 9  19039183.504 9
  21410352.328 7  21410352.020 9 114289928.644 7  88892167.009 9  21410352.691 9
  20937740.070 6  20937738.793 8 111963598.409 6  87082722.424 8  20937739.250 8
 19  5 14 16  7  0.0000000  0 12G05G13G15G20G21G29R01R02R03R17R18R24
  23438875.133 6  23438873.773 9 123172110.559 6  95978255.446 9  23438873.30147
  21011418.344 7                 110415763.196 7  86038248.50848  21011415.85548
  20021717.516 7  20021715.297 9 105214850.754 7  81985596.406 9  20021715.17249
  22467311.617 5                 118066606.361 5  91999889.80347  22467309.06647
  21610722.414 7                 113565124.764 7  88492290.99548  21610718.76248
  22287747.336 6  22287745.047 9 117122890.201 6  91264579.091 9  22287744.68048
  21637859.125 6  21637858.117 9 115666748.468 6  89963032.064 9  21637860.508 8
  19133442.188 8  19133441.063 9 102099729.633 8  79410910.419 9  19133441.625 9
  21900342.711 6  21900342.605 9 117234250.439 6  91182200.149 9  21900343.051 9
  19036559.531 8  19036557.887 9 101868482.554 8  79231049.390 9  19036558.750 9
  21387572.484 7  21387571.797 9 114168328.596 7  88797589.218 9  21387572.941 9
  20954844.859 6  20954844.137 8 112055066.238 6  87153864.065 8  20954844.367 8
 19  5 14 16  7 30.0000000  0 12G05G13G15G20G21G29R01R02R03R17R18R24
  23452519.961 6  23452517.926 9 123243813.371 6  96034127.750 9  23452517.81647
  21016192.391 6                 110440850.748 6  86057797.25248  21016189.77048
  20015089.219 7  20015087.234 9 105180018.521 7  81958454.414 9  20015086.85249
  22448813.125 5                 117969397.551 5  91924142.69547  22448810.88747
  21597245.008 7                 113494302.699 7  88437104.97248  21597241.78148
  22303046.047 6  22303044.191 9 117203286.640 6  91327225.650 9  22303043.94948
  21653436.828 6  21653436.969 8 115750025.602 6  90027803.166 8  21653438.809 8
  19129438.594 8  19129437.223 9 102078365.105 8  79394293.561 9  19129438.270 9
  21879641.070 6  21879641.477 9 117123436.049 6  91096011.198 9  21879642.270 9
  19034083.805 8  19034081.992 9 101855234.529 8  79220745.364 9  19034082.977 9
  21364868.469 7  21364867.770 9 114047134.509 7  88703327.168 9  21364869.070 9
  20972037.438 6  20972034.805 8 112146994.669 6  87225363.932 8  20972035.492 8
 19  5 14 16  8  0.0000000  0 12G05G13G15G20G21G29R01R02R03R17R18R24
  23466177.250 6  23466176.191 9 123315584.736 6  96090053.475 9  23466175.82847
  21021072.414 7                 110466495.683 7  86077780.32448  21021069.34848
  20008576.547 8  20008574.383 9 105145794.814 8  81931786.595 9  20008574.25449
  22430344.414 5                 117872342.879 5  91848515.70847  22430342.27047
  21583817.258 7                 113423738.468 7  88382119.85948  21583813.71548
  22318402.547 6  22318400.609 9 117283983.769 6  91390106.512 9  22318399.82848
  21669041.219 7  21669040.223 9 115833436.347 7  90092678.196 9  21669042.156 8
  19125533.250 8  19125531.773 9 102057525.076 8  79378084.660 9  19125532.777 9
  21859000.414 6  21859000.363 9 117012943.718 6  91010072.732 9  21859000.898 9
  19031758.773 8  19031756.980 9 101842790.543 8  79211066.700 9  19031757.652 9
  21342242.875 7  21342242.684 9 113926358.083 7  88609389.969 9  21342243.609 9
  20989314.750 6  20989313.133 8 112239388.655 6  87297225.909 8  20989313.531 8
 19  5 14 16  8 30.0000000  0 12G05G13G15G20G21G29R01R02R03R17R18R24
  23479848.266 6  23479846.453 9 123387424.408 6  96146032.437 9  23479846.08647
  21026058.016 7                 110492695.718 7  86098195.93648  21026055.38748
  20002180.000 7  20002178.359 9 105112179.813 7  81905593.101 9  20002178.04349
  22411905.055 5                 117775442.739 5  91773009.12347  22411902.39547
  21570438.648 7                 113353433.937 7  88327337.11448  21570434.82848
  22333814.484 6  22333813.117 9 117364978.715 6  91453219.444 9  22333812.78948
  21684669.367 7  21684669.047 9 115916978.596 7  90157655.510 9  21684671.191 8
  19121726.266 8  19121724.656 9 102037209.071 8  79362283.328 9  19121725.594 9
  21838420.047 6  21838419.984 9 116902774.554 6  90924385.613 9  21838420.711 9
  19029583.195 8  19029581.551 9 101831151.176 8  79202013.852 9  19029582.293 9
  21319696.922 7  21319695.930 9 113806003.444 7  88515780.821 9  21319696.914 9
  21006679.227 6  21006678.324 8 112332245.055 6  87369447.534 8  21006678.676 8
 19  5 14 16  9  0.0000000  0 12G05G13G15G20G21G29R01R02R03R17R18R24
  23493529.820 6  23493528.000 9 123459320.853 6  96202055.630 9  23493527.80547
  21031147.211 6                 110519438.734 6  86119034.65648  21031144.51248
  19995897.016 7  19995894.770 9 105079162.602 7  81879865.410 9  19995894.55949
  22393493.125 6                 117678687.091 6  91697615.12947  22393490.83647
  21557107.805 7                 113283379.841 7  88272749.51448  21557104.10948
  22349281.484 6  22349280.266 9 117446257.766 6  91516553.755 9  22349279.89548
  21700319.258 6  21700319.438 9 116000639.060 6  90222724.750 9  21700321.629 8
  19118013.969 8  19118012.578 9 102017404.473 8  79346879.753 9  19118013.336 9
  21817898.070 6  21817897.922 9 116792918.672 6  90838942.171 9  21817898.344 9
  19027556.508 8  19027555.082 9 101820306.185 8  79193578.852 9  19027555.891 9
  21297228.008 7  21297227.707 9 113686063.934 7  88422494.560 9  21297228.422 9
  21024128.453 6  21024126.438 8 112425549.396 6  87442017.563 8  21024126.668 8
 19  5 14 16  9 30.0000000  0 12G05G13G15G20G21G29R01R02R03R17R18R24
  23807014.867 6  23807013.098 9 125106696.395 6  97485724.863 9  23807012.97747
  21336132.516 7                 112122147.481 7  87367898.61148  21336129.60248
  20289521.680 7  20289519.457 9 106622170.153 7  83082208.962 9  20289519.27349
  22674902.820 5                 119157505.575 5  92849941.24147  22674900.73047
  21843618.961 7                 114789005.825 7  89445964.56748  21843614.99648
  22664595.648 6  22664593.797 9 119103240.831 6  92807709.374 9  22664593.44148
  22015784.617 6  22015784.426 8 117686981.051 6  91534324.058 8  22015786.398 8
  19414192.555 8  19414190.965 9 103597866.883 8  80576128.305 9  19414192.027 9
  22097229.609 7  22097228.773 9 118288199.044 7  92001938.028 9  22097229.328 9
  19325472.125 8  19325470.941 9 103414512.325 8  80433516.957 9  19325471.539 9
  21574632.289 7  21574631.578 9 115166865.325 7  89574228.996 9  21574632.352 9
  21341451.828 6  21341451.422 8 114122426.283 6  88761810.688 8  21341451.289 8
 19  5 14 16 10  0.0000000  0 12G05G13G15G20G21G29R01R02R03R17R18R24
  23820719.313 6  23820717.219 9 125178711.365 6  97541840.420 9  23820716.78147
  21341428.734 7                 112149978.064 7  87389584.78548  21341425.59048
  20283467.766 8  20283465.563 9 106590356.334 8  83057418.986 9  20283465.27749
  22656547.969 5                 119061048.284 5  92774779.74547  22656545.32847
  21830385.805 7                 114719465.554 7  89391777.34448  21830382.58648
  22680170.070 6  22680168.184 9 119185086.752 6  92871485.401 9  22680167.94948
  22031478.984 6  22031479.402 8 117770878.774 6  91599577.848 8  22031480.715 8
  19410673.680 8  19410672.199 9 103579089.576 8  80561523.733 9  19410672.969 9
  22076827.063 7  22076826.008 9 118178980.495 7  91916990.285 9  22076826.340 9
  19323744.031 8  19323742.430 9 103405265.396 8  80426324.898 9  19323743.316 9
  21552322.469 7  21552322.070 9 115047775.294 7  89481603.437 9  21552322.801 9
  21359067.289 6  21359067.816 8 114216624.798 6  88835076.177 8  21359067.000 8
 19  5 14 16 10 30.0000000  0 12G05G13G15G20G21G29R01R02R03R17R18R24
  23834437.305 6  23834435.309 9 125250799.475 6  97598012.965 9  23834435.38747
  21346830.234 7                 112178365.062 7  87411704.52848  21346827.37148
  20277531.133 8  20277528.930 9 106559159.460 8  83033109.737 9  20277528.66849
  22638224.070 6                 118964756.773 6  92699747.40947  22638221.79347
  21817204.680 7                 114650199.712 7  89337803.96148  21817201.09048
  22695801.313 6  22695799.055 9 119267227.151 6  92935490.895 9  22695798.91848
  22047198.883 6  22047198.301 8 117854907.370 6  91664933.422 8  22047200.215 8
  19407253.242 8  19407252.105 9 103560839.500 8  80547329.236 9  19407253.035 9
  22056486.656 7  22056485.746 9 118070098.077 7  91832303.986 9  22056486.086 9
  19322168.383 8  19322167.348 9 103396834.249 8  80419767.331 9  19322168.016 9
  21530095.914 7  21530095.660 9 114929131.887 7  89389325.251 9  21530096.809 9
  21376769.484 6  21376767.996 8 114311281.737 6  88908698.228 8  21376768.215 8
 19  5 14 16 11  0.0000000  0 12G05G13G15G20G21G29R01R02R03R17R18R24
  23848167.414 6  23848165.902 9 125322951.833 6  97654235.574 9  23848165.55147
  21352336.094 7                 112207297.883 7  87434249.58248  21352333.02748
  20271710.297 8  20271707.930 9 106528570.718 8  83009274.368 9  20271707.57449
  22619930.352 6                 118868622.733 6  92624837.79547  22619927.87147
  21804074.922 7                 114581201.071 7  89284038.79448  21804071.21148
  22711485.484 6  22711483.691 9 119349649.944 6  92999716.437 9  22711483.03148
  22062939.633 6  22062940.137 9 117939055.701 6  91730382.134 9  22062942.156 8
  19403930.469 8  19403929.313 9 103543106.571 8  80533536.964 9  19403930.043 9
  22036205.664 7  22036206.777 9 117961543.787 7  91747872.887 9  22036207.172 9
  19320744.031 8  19320742.824 9 103389210.138 8  80413837.461 9  19320743.410 9
  21507952.898 7  21507952.516 9 114810930.030 7  89297390.485 9  21507953.617 9
  21394553.227 6  21394552.270 8 114406384.317 6  88982666.887 8  21394552.523 8
 19  5 14 16 11 30.0000000  0 12G05G13G15G20G21G29R01R02R03R17R18R24
  23861907.609 6  23861905.773 9 125395156.453 6  97710498.904 9  23861905.05547
  21357943.047 7                 112236762.883 7  87457209.31948  21357940.46948
  20266002.875 7  20266000.875 9 106498578.544 7  82985903.849 9  20266000.78549
  22601664.109 6                 118772635.058 6  92550042.23947  22601662.17647
  21790993.930 7                 114512460.490 7  89230474.70548  21790990.20748
  22727220.617 7  22727219.355 9 119432340.869 7  93064150.912 9  22727218.69148
  22078702.641 6  22078701.988 8 118023309.913 6  91795913.173 8  22078703.574 8
  19400702.094 8  19400700.375 9 103525877.401 8  80520136.504 9  19400701.133 9
  22015986.938 7  22015987.355 9 117853306.816 7  91663688.592 9  22015987.617 9
  19319468.438 8  19319467.215 9 103382381.931 8  80408526.628 9  19319467.867 9
  21485891.336 7  21485891.137 9 114693162.373 7  89205793.434 9  21485891.672 9
  21412419.391 6  21412417.746 8 114501918.050 6  89056970.897 8  21412417.914 7
 19  5 14 16 12  0.0000000  0 12G05G13G15G20G21G29R01R02R03R17R18R24
  23875660.055 6  23875658.023 9 125467425.439 6  97766812.393 9  23875657.86347
  21363653.188 7                 112266771.544 7  87480592.69648  21363650.87548
  20260411.602 8  20260409.098 9 106469195.717 8  82963008.141 9  20260408.78149
  22583428.813 6                 118676807.819 6  92475371.68047  22583426.41047
  21777964.688 7                 114443992.593 7  89177123.09848  21777961.35248
  22743009.383 6  22743006.828 9 119515310.082 6  93128802.241 9  22743006.30148
  22094485.188 7  22094484.906 8 118107681.201 7  91861535.272 8  22094486.496 8
  19397569.438 8  19397568.234 9 103509164.577 8  80507137.644 9  19397569.234 9
  21995829.375 6  21995829.508 9 117745401.931 6  91579762.589 9  21995830.180 9
  19318343.430 8  19318341.945 9 103376363.379 8  80403845.524 9  19318342.738 9
  21463914.367 7  21463913.574 9 114575846.170 7  89114547.506 9  21463914.629 9
  21430366.383 6  21430364.699 8 114597892.742 6  89131617.871 8  21430365.680 8
 19  5 14 16 12 30.0000000  0 12G05G13G15G20G21G29R01R02R03R17R18R24
  23889422.656 6  23889420.926 9 125539747.508 6  97823167.227 9  23889420.70347
  21369465.234 7                 112297311.104 7  87504389.76048  21369461.89148
  20254934.023 8  20254932.133 9 106440411.468 8  82940578.867 9  20254931.67249
  22565222.141 6                 118581130.844 6  92400818.21747  22565219.53147
  21764985.867 7                 114375788.164 7  89123976.79248  21764982.44548
  22758847.961 6  22758845.973 9 119598543.695 6  93193659.593 9  22758845.88747
  22110290.047 6  22110286.801 8 118192156.701 6  91927238.421 8  22110289.469 8
  19394531.938 8  19394530.996 9 103492955.316 8  80494530.447 9  19394531.832 9
  21975732.641 6  21975731.965 9 117637818.801 6  91496086.833 9  21975732.590 9
  19317367.320 8  19317366.254 9 103371144.057 8  80399786.052 9  19317367.098 9
  21442020.242 7  21442019.473 9 114458974.483 7  89023647.322 9  21442020.289 9
  21448393.688 6  21448393.148 8 114694294.485 6  89206596.991 8  21448393.699 8
 19  5 14 16 13  0.0000000  0 12G05G13G15G20G21G29R01R02R03R17R18R24
  23903193.266 6  23903191.895 9 125612116.369 6  97879558.521 9  23903191.68047
  21375376.234 7                 112328374.552 7  87528595.04848  21375373.33248
  20249569.664 7  20249567.293 9 106412220.532 7  82918611.910 9  20249566.82849
  22547043.164 6                 118485599.772 6  92326378.43947  22547040.59847
  21752056.445 7                 114307843.760 7  89071033.10448  21752053.12148
  22774736.195 6  22774733.773 9 119682033.696 6  93258716.730 9  22774733.12947
  22126109.461 6  22126108.227 8 118276728.538 6  91993016.515 8  22126110.465 8
  19391587.820 8  19391586.648 9 103477243.022 8  80482309.777 9  19391587.266 9
  21955694.883 6  21955694.383 9 117530553.157 6  91412658.021 9  21955694.582 9
  19316540.734 8  19316539.375 9 103366718.814 8  80396344.191 9  19316540.125 9
  21420208.781 7  21420208.816 9 114342546.467 7  88933092.208 9  21420209.418 9
  21466500.055 6  21466498.980 8 114791114.575 6  89281901.495 8  21466499.086 8
 19  5 14 16 13 30.0000000  0 12G05G13G15G20G21G29R01R02R03R17R18R24
  23916976.953 6  23916975.301 9 125684549.197 6  97935999.671 9  23916975.17647
  21381390.094 7                 112359977.139 7  87553220.43848  21381386.91448
  20244320.977 7  20244318.465 9 106384640.009 7  82897120.607 9  20244318.28949
  22528895.320 6                 118390232.425 6  92252066.23947  22528893.22747
  21739180.727 7                 114240178.604 7  89018307.01248  21739177.09048
  22790675.047 6  22790672.793 9 119765794.497 6  93323984.877 9  22790672.54347
  22141950.563 6  22141950.477 8 118361412.306 6  92058881.661 8  22141952.652 8
  19388739.141 8  19388738.090 9 103462044.105 8  80470488.407 9  19388738.621 9
  21935718.789 7  21935718.969 9 117423623.963 7  91329490.879 9  21935719.250 9
  19315865.789 8  19315864.051 9 103363105.718 8  80393533.996 9  19315864.742 9
  21398485.656 7  21398484.727 9 114226583.394 7  88842898.721 9  21398485.691 9
  21484687.547 6  21484685.500 8 114888367.474 6  89357542.621 8  21484685.453 8
 19  5 14 16 14  0.0000000  0 12G05G13G15G20G21G29R01R02R03R17R18R24
  23930772.984 6  23930770.766 9 125757045.168 6  97992490.013 9  23930770.40247
  21387505.883 7                 112392116.978 7  87578264.47348  21387503.08248
  20239188.797 7  20239186.570 9 106357669.799 7  82876104.859 9  20239186.14849
  22510779.055 6                 118295029.458 6  92177882.12947  22510776.38747
  21726357.352 7                 114172794.566 7  88965799.96848  21726353.96948
  22806664.438 6  22806662.539 9 119849823.139 6  93389461.724 9  22806662.28947
  22157813.602 6  22157812.586 8 118446205.959 6  92124832.264 8  22157814.891 8
  19385986.883 8  19385986.309 9 103447357.370 8  80459065.397 9  19385986.566 9
  21915806.789 7  21915805.781 9 117317031.928 7  91246585.977 9  21915806.879 9
  19315342.508 8  19315341.043 9 103360305.019 8  80391355.667 9  19315341.988 9
  21376849.383 7  21376848.699 9 114111089.584 7  88753070.210 9  21376849.770 9
  21502953.961 6  21502951.898 8 114986049.768 6  89433517.740 8  21502952.809 7
 19  5 14 16 14 30.0000000  0 12G05G13G15G20G21G29R01R02R03R17R18R24
  23944577.859 6  23944575.504 9 125829589.645 6  98049018.147 9  23944575.34047
  21393721.117 7                 112424777.822 7  87603714.47948  21393718.28948
  20234169.914 7  20234167.281 9 106331295.309 7  82855553.313 9  20234166.90649
  22492690.922 6                 118199977.413 6  92103815.62647  22492688.50047
  21713586.297 7                 114105678.631 7  88913501.84548  21713582.92248
  22822702.391 6  22822700.715 9 119934102.380 6  93455133.855 9  22822700.38747
  22173693.836 6  22173693.648 8 118531092.616 6  92190855.210 8  22173695.547 8
  19383327.688 8  19383326.684 9 103433166.529 8  80448028.075 9  19383327.484 9
  21895955.484 7  21895954.563 9 117210763.770 7  91163932.979 9  21895955.090 9
  19314968.523 8  19314966.918 9 103358302.283 8  80389797.975 9  19314967.785 9
  21355299.602 7  21355299.023 9 113996054.805 7  88663598.723 9  21355299.773 9
  21521297.930 6  21521296.563 8 115084143.934 6  89509813.186 8  21521297.152 8
 19  5 14 16 15  0.0000000  0 12G05G13G15G20G21G29R01R02R03R17R18R24
  23958391.945 6  23958390.336 9 125902186.365 6  98105587.011 9  23958390.01647
  21400036.141 7                 112457962.374 7  87629572.57048  21400033.31348
  20229265.352 8  20229262.746 9 106305521.188 8  82835469.597 9  20229262.51249
  22474632.883 6                 118105081.728 6  92029870.96247  22474630.24247
  21700866.773 7                 114038837.455 7  88861417.81248  21700863.03548
  22838788.078 6  22838786.793 9 120018633.775 6  93521002.463 9  22838786.40647
  22189590.734 6  22189591.387 8 118616075.565 6  92256953.073 8  22189592.809 8
  19380761.922 8  19380761.055 9 103419475.223 8  80437379.292 9  19380761.711 9
  21876164.484 7  21876164.555 9 117104825.123 7  91081536.271 9  21876165.355 9
  19314744.148 8  19314742.285 9 103357102.715 8  80388864.967 9  19314743.293 9
  21333837.469 7  21333837.324 9 113881487.459 7  88574490.793 9  21333837.953 9
  21539719.922 6  21539717.992 8 115182651.097 6  89586429.858 8  21539717.902 8
 19  5 14 16 15 30.0000000  0 12G05G13G15G20G21G29R01R02R03R17R18R24
  23972216.492 6  23972214.313 9 125974833.968 6  98162195.516 9  23972214.18047
  21406449.836 7                 112491668.259 7  87655836.89448  21406447.34048
  20224474.875 7  20224472.313 9 106280346.397 7  82815852.875 9  20224472.02349
  22456604.922 6                 118010342.335 6  91956048.08447  22456602.16447
  21688199.547 7                 113972272.254 7  88809548.82948  21688195.96548
  22854922.109 6  22854919.625 9 120103414.001 6  93587064.960 9  22854919.10547
  22205506.977 6  22205506.418 8 118701151.562 6  92323123.283 8  22205508.250 8
  19378289.234 8  19378288.055 9 103406281.188 8  80427117.275 9  19378288.930 9
  21856436.633 7  21856435.781 9 116999216.318 7  90999396.098 9  21856436.113 9
  19314669.820 8  19314668.477 9 103356705.817 8  80388556.264 9  19314669.215 9
  21312463.078 7  21312462.152 9 113767391.270 7  88485749.324 9  21312463.273 9
  21558216.758 6  21558216.867 8 115281567.671 6  89663364.963 8  21558216.871 7
 19  5 14 16 16  0.0000000  0 12G05G13G15G20G21G29R01R02R03R17R18R24
  23986049.273 6  23986047.426 9 126047527.082 6  98218839.492 9  23986047.04747
  21412961.625 6                 112525887.646 6  87682501.35148  21412958.64548
  20219796.938 8  20219794.840 9 106255765.642 8  82796699.043 9  20219794.55149
  22438605.461 6                 117915754.672 6  91882343.43047  22438602.33647
  21675584.523 7                 113905979.257 7  88757891.95548  21675580.89148
  22871101.508 6  22871098.742 9 120188434.589 6  93653314.754 9  22871098.60947
  22221436.938 6  22221437.707 8 118786313.516 6  92389360.341 8  22221439.141 8
  19375908.586 8  19375907.371 9 103393578.079 8  80417237.080 9  19375908.410 9
  21836767.375 7  21836767.898 9 116893932.919 7  90917509.035 9  21836768.473 9
  19314744.250 8  19314743.234 9 103357106.184 8  80388867.651 9  19314744.008 9
  21291177.016 7  21291177.000 9 113653765.107 7  88397373.433 9  21291177.961 9
  21576791.125 6  21576789.297 8 115380884.861 6  89740611.658 8  21576789.707 8
 19  5 14 16 16 30.0000000  0 12G05G13G15G20G21G29R01R02R03R17R18R24
  23999891.766 6  23999889.652 8 126120269.112 6  98275521.590 8  23999889.00447
  21419571.523 6                 112560623.268 6  87709568.06948  21419568.79348
  20215233.406 8  20215230.832 9 106231782.514 8  82778010.902 9  20215230.55149
  22420635.719 6                 117821323.962 6  91808761.08447  22420632.99247
  21663022.180 7                 113839964.697 7  88706452.04348  21663018.74248
  22887324.867 6  22887324.195 9 120273697.254 6  93719753.182 9  22887323.66847
  22237385.211 5  22237385.660 8 118871564.014 5  92455666.260 8  22237387.340 8
  19373620.758 8  19373619.988 9 103381368.802 8  80407740.983 9  19373620.570 9
  21817161.734 7  21817161.602 9 116788980.563 7  90835879.436 9  21817162.172 9
  19314969.203 8  19314967.723 9 103358308.524 8  80389802.801 9  19314968.328 9
  21269980.672 7  21269980.203 9 113540617.271 7  88309369.563 9  21269981.449 9
  21595439.023 6  21595438.070 8 115480604.123 6  89818171.075 8  21595438.012 8
 19  5 14 16 17  0.0000000  0 12G05G13G15G20G21G29R01R02R03R17R18R24
  24013740.359 6  24013738.266 8 126193046.396 6  98332231.146 8  24013737.73447
  21426277.328 6                 112595860.007 6  87737025.26748  21426274.37948
  20210780.570 7  20210778.543 9 106208383.786 7  82759778.127 9  20210778.16049
  22402693.969 6                 117727037.677 6  91735291.27447  22402690.66447
  21650510.930 7                 113774216.966 7  88655220.03948  21650507.28948
  22903593.461 6  22903592.340 9 120359185.298 6  93786367.214 9  22903591.70747
  22253347.398 6  22253347.156 8 118956886.960 6  92522028.537 8  22253348.859 8
  19371422.570 8  19371421.109 9 103369638.222 8  80398617.213 9  19371421.875 9
  21797615.531 7  21797615.277 9 116684346.478 7  90754497.392 9  21797615.977 9
  19315340.977 8  19315339.871 9 103360299.358 8  80391351.216 9  19315340.500 9
  21248872.453 7  21248871.551 9 113427938.163 7  88221730.268 9  21248872.375 9
  21614158.438 6  21614156.230 8 115580708.433 6  89896029.972 8  21614157.184 8
 19  5 14 16 17 30.0000000  0 12G05G13G15G20G21G29R01R02R03R17R18R24
  24027598.727 6  24027596.879 8 126265872.510 6  98388978.749 8  24027596.07047
  21433079.852 6                 112631609.884 6  87764882.31448  21433077.16448
  20206441.859 7  20206440.039 9 106185583.229 7  82742011.459 9  20206439.60949
  22384781.906 6                 117632910.912 6  91661945.76647  22384779.35547
  21638053.508 7                 113708752.305 7  88604208.61948  21638049.78948
  22919907.063 6  22919904.813 9 120444910.437 6  93853165.993 9  22919904.79347
  22269324.406 5  22269324.250 8 119042295.151 5  92588457.122 8  22269326.059 8
  19369316.445 8  19369315.609 9 103358399.555 8  80389876.031 9  19369316.246 9
  21778131.539 7  21778130.867 9 116580046.187 7  90673374.955 9  21778131.219 9
  19315863.586 8  19315862.473 9 103363092.992 8  80393524.033 9  19315862.844 9
  21227854.625 7  21227854.207 9 113315746.457 7  88134470.066 9  21227855.234 9
  21632952.117 6  21632951.020 8 115681208.684 6  89974196.834 8  21632951.891 7
 19  5 14 16 18  0.0000000  0 12G05G13G15G20G21G29R01R02R03R17R18R24
  24041466.516 5  24041464.531 8 126338747.152 5  98445764.159 8  24041463.82047
  21439979.891 7                 112667871.003 7  87793137.73648  21439977.40648
  20202216.758 7  20202214.703 9 106163381.237 7  82724711.214 9  20202214.45749
  22366900.164 6                 117538944.142 6  91588724.92947  22366898.10247
  21625650.086 7                 113643572.537 7  88553419.19448  21625646.35548
  22936263.609 6  22936262.340 9 120530870.005 6  93920147.455 9  22936262.02347
  22285317.055 5  22285317.188 9 119127787.003 5  92654950.765 9  22285319.480 8
  19367302.117 8  19367300.918 9 103347651.659 8  80381516.559 9  19367301.684 9
  21758710.234 7  21758709.504 9 116476080.846 7  90592513.042 9  21758709.934 9
  19316535.648 8  19316534.676 9 103366689.972 8  80396321.680 9  19316535.434 9
  21206929.453 7  21206929.395 9 113204047.122 7  88047592.817 9  21206930.164 9
  21651819.953 6  21651818.645 8 115782102.474 6  90052669.765 8  21651819.039 8
 19  5 14 16 18 30.0000000  0 12G05G13G15G20G21G29R01R02R03R17R18R24
  24055341.078 5  24055339.461 8 126411658.703 5  98502578.334 8  24055338.94947
  21446975.172 6                 112704630.657 6  87821781.62548  21446972.88748
  20198103.867 7  20198101.641 9 106141766.082 7  82707868.240 9  20198101.02749
  22349048.461 6                 117445127.542 6  91515621.10747  22349045.55147
  21613299.336 6                 113578668.576 6  88502844.68248  21613296.02348
  22952663.547 6  22952661.652 9 120617049.785 6  93987300.507 9  22952661.68047
  22301323.398 5  22301323.574 8 119213349.278 5  92721499.183 8  22301325.684 8
  19365377.836 8  19365376.363 9 103337382.189 8  80373529.201 9  19365376.969 9
  21739348.055 7  21739348.195 9 116372440.432 7  90511903.854 9  21739348.516 9
  19317355.750 8  19317354.387 9 103371078.880 8  80399735.264 9  19317355.305 9
  21186095.719 7  21186094.648 9 113092832.562 7  87961092.620 9  21186095.535 9
  21670758.445 6  21670757.617 8 115883374.912 6  90131437.204 8  21670757.777 8
 19  5 14 16 19  0.0000000  0 12G05G13G15G20G21G29R01R02R03R17R18R24
  24069223.836 5  24069221.289 9 126484612.240 5  98559425.219 9  24069220.90647
  21454066.219 6                 112741893.135 6  87850817.31648  21454063.44148
  20194103.234 7  20194101.125 9 106120743.658 7  82691487.135 9  20194100.84049
  22331225.773 6                 117351468.233 6  91442639.85747  22331222.54747
  21601002.414 7                 113514048.061 7  88452491.04548  21600998.76248
  22969106.063 6  22969103.520 9 120703453.256 6  94054627.854 9  22969103.39148
  22317342.813 6  22317343.504 8 119298986.282 6  92788105.732 8  22317345.863 8
  19363543.578 8  19363542.004 9 103327595.663 8  80365917.467 9  19363542.918 9
  21720050.383 7  21720049.398 9 116269132.134 7  90431552.985 9  21720050.039 9
  19318325.336 8  19318324.148 9 103376265.953 8  80403769.646 9  19318324.684 9
  21165353.398 7  21165353.496 9 112982113.271 7  87874977.626 9  21165354.340 9
  21689769.367 6  21689766.934 8 115985029.108 6  90210501.563 8  21689767.563 8
 19  5 14 16 19 30.0000000  0 12G05G13G15G20G21G29R01R02R03R17R18R24
  24083114.234 5  24083113.184 9 126557607.024 5  98616304.234 9  24083112.49247
  21461251.680 6                 112779654.467 6  87880241.73548  21461249.04348
  20190215.320 7  20190212.840 9 106100311.791 7  82675566.208 9  20190212.27349
  22313432.250 6                 117257965.259 6  91369780.41647  22313429.29347
  21588759.484 7                 113449711.692 7  88402358.80748  21588756.27348
  22985589.820 6  22985587.262 9 120790075.860 6  94122125.967 9  22985587.16448
  22333377.117 6  22333377.934 9 119384694.445 6  92854767.642 9  22333379.473 8
  19361799.625 8  19361798.465 9 103318289.378 8  80358679.247 9  19361799.148 9
  21700813.086 7  21700812.996 9 116166155.184 7  90351459.817 9  21700813.637 9
  19319443.133 8  19319441.734 9 103382249.567 8  80408423.553 9  19319442.359 9
  21144706.039 7  21144704.938 9 112871891.866 7  87789249.877 9  21144705.965 9
  21708847.969 5  21708847.398 8 116087060.195 5  90289859.066 8  21708848.039 8
 19  5 14 16 20  0.0000000  0 12G05G13G15G20G21G29R01R02R03R17R18R24
  24097011.391 5  24097009.953 9 126630636.065 5  98673209.964 9  24097009.53547
  21468530.672 6                 112817906.820 6  87910048.75648  21468528.27748
  20186438.422 7  20186436.266 9 106080464.341 7  82660100.662 9  20186435.99249
  22295668.133 6                 117164613.137 6  91297038.53747  22295664.91847
  21576570.203 7                 113385655.521 7  88352444.91648  21576566.39148
  23002113.539 6  23002111.457 9 120876908.757 6  94189787.956 9  23002111.23448
  22349422.141 6  22349422.402 9 119470466.326 6  92921479.077 9  22349424.336 8
  19360144.453 8  19360143.113 9 103309455.377 8  80351808.360 9  19360143.848 9
  21681637.492 7  21681636.777 9 116063504.454 7  90271620.396 9  21681637.512 9
  19320708.813 8  19320707.824 9 103389023.378 8  80413692.064 9  19320708.641 9
  21124150.375 7  21124150.020 9 112762166.104 7  87703907.636 9  21124151.031 9
  21727997.234 6  21727996.824 8 116189458.539 6  90369502.213 8  21727997.039 8
 19  5 14 16 20 30.0000000  0 12G05G13G15G20G21G29R01R02R03R17R18R24
  24110916.641 6  24110914.746 9 126703706.348 6  98730147.822 9  24110914.43447
  21475904.344 6                 112856655.569 6  87940242.58748  21475902.06348
  20182773.875 7  20182771.688 9 106061208.457 7  82645096.074 9  20182771.34449
  22277934.008 6                 117071420.270 6  91224420.73847  22277931.60547
  21564435.711 7                 113321888.185 7  88302756.07948  21564431.71148
  23018678.672 6  23018676.488 9 120963956.909 6  94257617.664 9  23018676.15648
  22365481.031 4  22365481.031 8 119556307.157 4  92988244.161 8  22365482.480 8
  19358578.195 8  19358576.621 9 103301100.192 8  80345309.885 9  19358577.230 9
  21662524.547 7  21662523.129 9 115961188.686 7  90192041.484 9  21662523.695 9
  19322124.758 8  19322122.711 9 103396595.112 8  80419581.185 9  19322123.387 9
  21103690.367 7  21103689.980 9 112652948.087 7  87618960.292 9  21103690.746 9
  21747215.656 5  21747215.035 8 116292228.925 5  90449434.709 8  21747215.563 8
 19  5 14 16 21  0.0000000  0 12G05G13G15G20G21G29R01R02R03R17R18R24
  24124828.414 6  24124826.617 9 126776814.027 6  98787114.864 9  24124825.96547
  21483371.969 6                 112895895.370 6  87970819.05148  21483368.88348
  20179221.586 7  20179219.414 9 106042540.500 7  82630549.624 9  20179219.24649
  22260229.922 6                 116978384.496 6  91151925.35448  22260227.03148
  21552355.852 7                 113258408.352 7  88253291.27948  21552351.98048
  23035282.430 6  23035280.820 9 121051213.701 6  94325609.963 9  23035280.71148
  22381550.773 6  22381551.492 8 119642211.909 6  93055058.948 8  22381553.273 8
  19357100.953 8  19357100.211 9 103293219.119 8  80339180.166 9  19357100.719 9
  21643472.289 7  21643472.172 9 115859205.542 7  90112721.286 9  21643472.727 9
  19323687.305 8  19323686.199 9 103404960.997 8  80426087.968 9  19323686.727 9
  21083325.789 7  21083324.703 9 112544238.497 7  87534408.403 9  21083325.668 9
  21766501.930 5  21766501.887 8 116395364.406 5  90529651.187 8  21766502.441 8
 19  5 14 16 21 30.0000000  0 12G05G13G15G20G21G29R01R02R03R17R18R24
  24138746.570 5  24138745.676 9 126849955.717 5  98844108.336 9  24138745.14847
  21490931.594 6                 112935621.663 6  88001774.61348  21490928.44948
  20175780.242 7  20175778.652 9 106024457.251 7  82616458.784 9  20175778.27749
  22242555.391 6                 116885503.799 6  91079550.80648  22242552.37948
  21540330.641 7                 113195215.252 7  88204049.90048  21540327.07448
  23051925.086 6  23051924.410 9 121138673.621 6  94393760.534 9  23051924.05948
  22397633.055 6  22397632.570 9 119728176.077 6  93121919.950 9  22397634.719 8
  19355712.625 8  19355711.023 9 103285807.874 8  80333415.872 9  19355712.203 9
  21624482.656 7  21624482.836 9 115757553.160 7  90033658.343 9  21624483.070 9
  19325398.578 8  19325397.348 9 103414118.022 8  80433210.086 9  19325398.359 9
  21063056.328 7  21063055.102 9 112436038.595 7  87450252.931 9  21063055.941 9
  21785855.859 5  21785856.684 8 116498859.174 5  90610147.104 8  21785856.434 8
 19  5 14 16 22  0.0000000  0 12G05G13G15G20G21G29R01R02R03R17R18R24
  24152672.078 6  24152670.719 9 126923135.581 6  98901131.614 9  24152670.34847
  21498584.188 6                 112975836.935 6  88033111.18748  21498581.31348
  20172451.352 7  20172449.379 9 106006963.064 7  82602826.959 9  20172449.04349
  22224911.359 6                 116792784.443 6  91007301.97948  22224908.56348
  21528361.234 7                 113132315.725 7  88155037.28548  21528357.96148
  23068607.961 6  23068605.867 9 121226338.641 6  94462070.933 9  23068605.23847
  22413725.844 6  22413725.477 8 119814202.936 6  93188829.755 8  22413727.188 8
  19354412.516 8  19354410.922 9 103278870.045 8  80328019.783 9  19354411.930 9
  21605556.438 7  21605555.527 9 115656237.225 7  89954857.079 9  21605556.051 9
  19327258.641 8  19327257.504 9 103424070.891 8  80440951.192 9  19327258.480 9
  21042884.070 7  21042882.957 9 112328357.539 7  87366500.998 9  21042883.617 9
  21805278.398 5  21805277.668 8 116602714.795 5  90690923.680 8  21805277.965 7
 19  5 14 16 22 30.0000000  0 12G05G13G15G20G21G29R01R02R03R17R18R24
  24166603.430 6  24166601.801 9 126996341.393 6  98958175.091 9  24166601.37547
  21506327.344 6                 113016526.909 6  88064817.65848  21506324.43848
  20169232.016 7  20169230.242 9 105990044.854 7  82589643.942 9  20169229.86749
  22207295.469 6                 116700213.788 6  90935169.01348  22207292.93448
  21516445.195 7                 113069698.916 7  88106244.96248  21516442.19948
  23085326.172 6  23085324.559 9 121314193.279 6  94530529.078 9  23085324.09447
  22429828.508 6  22429827.813 9 119900277.826 6  93255776.851 9  22429830.379 8
  19353198.297 8  19353196.613 9 103272391.312 8  80322980.769 9  19353197.539 9
  21586690.469 7  21586689.930 9 115555246.114 7  89876308.457 9  21586690.477 9
  19329264.930 8  19329263.105 9 103434806.467 8  80449301.080 9  19329263.930 9
  21022807.023 7  21022806.066 9 112221186.616 7  87283145.839 9  21022807.113 9
  21824764.688 6  21824763.320 8 116706914.996 6  90771968.247 8  21824763.453 7
 19  5 14 16 23  0.0000000  0 12G05G13G15G20G21G29R01R02R03R17R18R24
  24180541.648 6  24180540.281 9 127069587.442 6  99015249.915 9  24180539.89147
  21514163.117 6                 113057704.336 6  88096903.96548  21514160.28548
  20166125.133 7  20166123.063 9 105973717.388 7  82576921.253 9  20166122.52749
  22189711.086 6                 116607807.896 6  90863164.42848  22189708.48048
  21504587.352 7                 113007381.671 7  88057686.07248  21504583.55548
  23102081.898 6  23102081.199 9 121402249.984 6  94599144.696 9  23102080.64147
  22445942.148 6  22445941.629 8 119986414.129 6  93322771.753 8  22445943.047 8
  19352072.648 8  19352071.922 9 103266385.520 8  80318309.600 9  19352072.820 9
  21567887.211 7  21567887.445 9 115454595.911 7  89798024.994 9  21567888.016 9
  19331419.813 8  19331418.871 9 103446339.878 8  80458271.497 9  19331419.855 9
  21002829.563 7  21002827.871 9 112114545.305 7  87200202.593 9  21002829.371 9
  21844317.789 5  21844316.176 8 116811471.912 5  90853290.285 8  21844316.734 8
 19  5 14 16 23 30.0000000  0 12G05G13G15G20G21G29R01R02R03R17R18R24
  24194484.492 5  24194483.098 9 127142860.718 5  99072345.966 9  24194482.70747
  21522089.063 6                 113099354.846 6  88129358.91248  21522086.08248
  20163128.031 7  20163125.594 9 105957967.556 7  82564648.661 9  20163125.18049
  22172156.398 6                 116515555.345 6  90791279.34247  22172153.32847
  21492783.516 7                 112945353.244 7  88009352.23648  21492780.06648
  23118874.289 6  23118872.863 9 121490493.241 6  94667905.671 9  23118872.57047
  22462063.930 6  22462063.902 8 120072597.817 6  93389803.515 8  22462065.734 8
  19351033.633 8  19351032.727 9 103260838.796 8  80313995.478 9  19351033.676 9
  21549146.758 7  21549146.844 9 115354274.928 7  89719997.594 9  21549147.215 9
  19333722.297 8  19333721.570 9 103458657.834 8  80467852.125 9  19333722.258 9
  20982949.539 8  20982948.578 9 112008425.117 8  87117664.682 9  20982949.527 9
  21863934.797 6  21863932.496 8 116916369.701 6  90934877.431 8  21863932.871 7
 19  5 14 16 24  0.0000000  0 12G05G13G15G20G21G29R01R02R03R17R18R24
  24208432.898 5  24208431.871 9 127216161.447 5  99129463.393 9  24208431.50047
  21530104.430 6                 113141476.419 6  88162180.91248  21530101.27348
  20160240.750 7  20160238.648 9 105942795.367 7  82552826.181 9  20160238.16449
  22154630.547 6                 116423457.327 6  90719514.65848  22154627.76248
  21481035.102 7                 112883615.908 7  87961245.22448  21481031.48448
  23135702.023 6  23135700.156 9 121578920.387 6  94736809.943 9  23135699.76647
  22478193.773 6  22478194.711 8 120158826.912 6  93456870.577 8  22478196.473 8
  19350079.922 8  19350079.047 9 103255749.948 8  80310037.486 9  19350079.656 9
  21530467.305 7  21530467.598 9 115254284.551 7  89642227.329 9  21530467.938 9
  19336169.820 8  19336169.512 9 103471760.320 8  80478042.937 9  19336170.219 9
  20963167.656 7  20963167.438 9 111902830.338 7  87035535.413 9  20963168.305 9
  21883613.375 6  21883612.344 8 117021605.346 6  91016727.388 8  21883612.660 7
 19  5 14 16 24 30.0000000  0 12G05G13G15G20G21G29R01R02R03R17R18R24
  24222387.789 5  24222387.582 9 127289496.448 5  99186607.531 9  24222387.41847
  21538210.320 6                 113184075.046 6  88195374.65348  21538207.72348
  20157464.734 7  20157462.332 9 105928207.772 7  82541459.229 9  20157461.96949
  22137135.766 6                 116331522.362 6  90647877.04248  22137133.26248
  21469344.352 7                 112822179.385 7  87913372.60848  21469340.72348
  23152565.031 6  23152563.387 9 121667536.584 6  94805861.515 9  23152563.09847
  22494336.125 6  22494335.578 8 120245108.160 6  93523978.195 8  22494337.305 8
  19349213.188 8  19349212.184 9 103251125.355 8  80306440.582 9  19349212.672 9
  21511852.734 7  21511852.176 9 115154633.489 7  89564720.972 9  21511852.605 9
  19338766.523 8  19338765.434 9 103485654.979 8  80488849.885 9  19338766.242 9
  20943486.977 7  20943487.082 9 111797773.120 7  86953824.250 9  20943487.703 9
  21903357.094 6  21903356.445 8 117127183.412 6  91098843.646 8  21903356.055 7
 19  5 14 16 25  0.0000000  0 12G05G13G15G20G21G29R01R02R03R17R18R24
  24236348.969 4  24236348.188 9 127362862.514 4  99243775.879 9  24236347.60247
  21546406.898 6                 113227145.184 6  88228935.79748  21546403.87148
  20154799.586 8  20154796.957 9 105914201.258 8  82530545.071 9  20154796.75049
  22119671.875 6                 116239747.980 6  90576364.55248  22119668.93048
  21457709.953 7                 112761042.166 7  87865733.21148  21457706.26648
  23169462.438 6  23169461.086 9 121756335.434 6  94875055.412 9  23169460.39547
  22510484.727 6  22510484.742 8 120331436.301 6  93591122.293 8  22510486.539 8
  19348433.258 8  19348431.738 9 103246959.931 8  80303200.815 9  19348432.410 9
  21493299.461 7  21493299.020 9 115055319.036 7  89487476.434 9  21493299.371 9
  19341510.711 8  19341509.758 9 103500337.612 8  80500269.697 9  19341510.473 9
  20923906.867 7  20923906.754 9 111693253.895 7  86872531.528 9  20923907.809 9
  21923163.438 6  21923162.941 7 117233096.997 6  91181220.865 7  21923162.645 7
 19  5 14 16 25 30.0000000  0 12G05G13G15G20G21G29R01R02R03R17R18R24
  24250315.758 5  24250314.719 9 127436257.460 5  99300966.741 9  24250314.31347
  21554691.617 6                 113270683.086 6  88262861.44148  21554688.61748
  20152243.789 8  20152241.953 9 105900772.783 8  82520081.324 9  20152241.33249
  22102238.430 6                 116148133.279 6  90504976.48548  22102235.21148
  21446133.063 7                 112700204.242 7  87818327.03848  21446129.37148
  23186394.617 6  23186392.672 9 121845312.415 6  94944388.120 9  23186392.60247
  22526641.766 6  22526642.266 8 120417807.708 6  93658300.041 8  22526643.738 8
  19347737.602 8  19347736.453 9 103243250.484 8  80300315.694 9  19347737.012 9
  21474808.938 7  21474809.070 9 114956340.402 7  89410493.084 9  21474809.355 9
  19344401.297 8  19344400.188 9 103515805.922 8  80512300.595 9  19344401.227 9
  20904428.445 7  20904427.391 9 111589275.262 7  86791659.264 9  20904428.281 9
  21943032.930 5  21943030.969 8 117339341.251 5  91263855.274 8  21943030.789 7
 19  5 14 16 26  0.0000000  0 12G05G13G15G20G21G29R01R02R03R17R18R24
  24264289.773 5  24264287.867 9 127509687.423 5  99358184.868 9  24264287.80947
  21563066.469 6                 113314693.151 6  88297155.00148  21563063.62148
  20149800.305 7  20149798.020 9 105887929.369 7  82510073.462 9  20149797.65649
  22084836.078 6                 116056685.956 6  90433718.84948  22084833.14148
  21434614.773 7                 112639674.294 7  87771160.84548  21434610.94148
  23203360.094 6  23203359.121 9 121934471.459 6  95013862.693 9  23203358.75847
  22542809.203 6  22542808.672 8 120504227.777 6  93725515.641 8  22542810.582 8
  19347128.805 8  19347128.027 9 103240002.854 8  80297789.759 9  19347128.512 9
  21456383.703 7  21456383.211 9 114857705.589 7  89333777.154 9  21456383.832 9
  19347440.617 8  19347438.961 9 103532066.471 8  80524947.677 9  19347439.734 9
  20885053.203 7  20885052.410 9 111485848.220 7  86711216.007 9  20885053.211 9
  21962963.047 6  21962961.531 8 117445919.713 6  91346749.616 8  21962961.367 7
 19  5 14 16 26 30.0000000  0 13G05G13G15G20G21G24G29R01R02R03R17R18
                                R24
  24278267.836 5  24278265.996 9 127583143.435 5  99415423.268 9  24278265.78547
  21571528.672 6                 113359164.636 6  88331808.10048  21571526.42648
  20147465.633 8  20147463.633 9 105875661.366 8  82500513.992 9  20147463.17249
  22067464.547 6                 115965398.440 6  90362585.73648  22067461.57048
  21423153.664 7                 112579445.566 7  87724229.36948  21423149.89548
  24039193.664 2  24039195.016 9 126326809.34312  98436482.39119  24039194.78946
  23220359.328 6  23220357.746 9 122023800.751 6  95083469.907 9  23220357.43847
  22558983.797 5  22558982.023 8 120590686.146 5  93792761.000 8  22558984.531 8
  19346604.742 8  19346603.539 9 103237206.558 8  80295614.868 9  19346604.098 9
  21438020.930 7  21438019.797 9 114759406.414 7  89257322.269 9  21438020.363 9
  19350624.656 8  19350623.770 9 103549109.778 8  80538203.575 9  19350624.598 9
  20865779.875 7  20865779.418 9 111382967.774 7  86631197.894 9  20865780.012 9
  21982953.102 6  21982950.199 8 117552820.165 6  91429894.396 8  21982952.031 7
 19  5 14 16 27  0.0000000  0 12G13G15G20G21G24G29R01R02R03R17R18R24
  21580079.922 6                 113404101.813 6  88366824.08748  21580077.66048
  20145241.547 7  20145239.176 9 105863974.671 7  82491407.486 9  20145238.87549
  22050125.359 6                 115874277.822 6  90291582.66748  22050121.95748
  21411751.117 7                 112519526.110 7  87677538.88048  21411747.62148
  24016228.227 2  24016229.902 9 126206126.830 2  98342444.103 9  24016230.04346
  23237391.273 6  23237389.762 9 122113304.607 6  95153213.154 9  23237389.23447
  22575165.836 6  22575165.125 8 120677187.571 6  93860039.860 8  22575167.141 8
  19346166.531 8  19346165.023 9 103234866.626 8  80293794.928 9  19346165.973 9
  21419721.008 7  21419720.727 9 114661450.491 7  89181134.362 9  21419721.309 9
  19353957.156 8  19353956.066 9 103566941.545 8  80552072.710 9  19353956.797 9
  20846611.625 7  20846611.730 9 111280644.895 7  86551613.437 9  20846612.492 9
  22003005.969 6  22003004.516 7 117660045.875 6  91513292.159 7  22003004.383 7
 19  5 14 16 27 30.0000000  0 12G13G15G20G21G24G29R01R02R03R17R18R24
  21588717.977 6                 113449495.478 6  88402195.76348  21588715.84448
  20143126.813 8  20143124.340 9 105852861.136 8  82482747.593 9  20143124.19549
  22032816.430 6                 115783317.592 6  90220704.58948  22032812.78148
  21400406.547 7                 112459910.643 7  87631085.26648  21400403.19148
  23993276.992 4  23993277.395 9 126085508.803 4  98248456.103 9  23993277.44947
  23254455.547 6  23254453.215 9 122202972.219 6  95223083.987 9  23254452.73047
  22591354.516 6  22591352.688 8 120763723.058 6  93927345.231 8  22591355.039 8
  19345811.484 8  19345810.207 9 103232974.055 8  80292322.929 9  19345810.977 9
  21401485.641 7  21401484.691 9 114563831.039 7  89105208.155 9  21401485.199 9
  19357435.969 8  19357434.074 9 103585553.735 8  80566548.854 9  19357434.887 9
  20827545.953 7  20827546.188 9 111178875.893 7  86472459.771 9  20827547.195 9
  22023116.164 5  22023114.102 7 117767586.122 5  91596934.560 7  22023114.582 7
 19  5 14 16 28  0.0000000  0 12G13G15G20G21G24G29R01R02R03R17R18R24
  21597443.219 6                 113495345.566 6  88437923.09548  21597440.82448
  20141121.570 8  20141119.477 9 105842322.501 8  82474535.671 9  20141118.97749
  22015537.977 6                 115692521.238 6  90149954.20148  22015534.64548
  21389120.766 7                 112400603.063 7  87584871.57448  21389117.23848
  23970337.406 5  23970337.570 9 125964961.031 5  98154522.805 9  23970338.03547
  23271549.195 6  23271546.844 9 122292803.059 6  95293082.049 9  23271546.66847
  22607549.031 6  22607548.484 8 120850293.214 6  93994677.520 8  22607550.484 8
  19345540.703 8  19345540.242 9 103231529.400 8  80291199.312 9  19345541.020 9
  21383312.664 7  21383311.570 9 114466551.107 7  89029546.027 9  21383312.199 9
  19361059.391 8  19361058.359 9 103604947.740 8  80581633.070 9  19361059.074 9
  20808586.641 7  20808586.695 9 111077667.131 7  86393741.849 9  20808587.438 9
  22043285.922 6  22043283.766 7 117875439.571 6  91680820.566 7  22043284.273 7
 19  5 14 16 28 30.0000000  0 12G13G15G20G21G24G29R01R02R03R17R18R24
  21606254.055 6                 113541646.922 6  88474002.07148  21606251.54748
  20139224.406 8  20139222.531 9 105832354.924 8  82466768.735 9  20139222.07449
  21998290.289 6                 115601886.380 6  90079329.64947  21998287.98447
  21377893.180 7                 112341602.345 7  87538896.98148  21377889.79348
  23947410.727 5  23947411.453 9 125844484.081 5  98060644.650 9  23947412.13347
  23288674.164 6  23288671.504 9 122382791.545 6  95363202.939 9  23288670.76647
  22623748.438 6  22623748.895 8 120936893.687 6  94062033.428 8  22623751.297 8
  19345353.336 8  19345352.734 9 103230528.444 8  80290420.793 9  19345353.016 9
  21365202.781 7  21365203.125 9 114369608.798 7  88954146.481 9  21365203.285 9
  19364829.070 8  19364828.230 9 103625119.878 8  80597322.502 9  19364829.000 9
  20789732.656 7  20789731.648 9 110977019.830 7  86315460.619 9  20789732.609 9
  22063512.094 5  22063510.188 7 117983600.103 5  91764945.409 7  22063510.746 7
 19  5 14 16 29  0.0000000  0 12G13G15G20G21G24G29R01R02R03R17R18R24
  21615150.820 6                 113588399.872 6  88510432.93948  21615148.50448
  20137436.789 8  20137434.832 9 105822960.446 8  82459448.367 9  20137434.37549
  21981074.203 6                 115511416.340 6  90008833.54247  21981071.50047
  21366725.070 7                 112282912.725 7  87493164.81348  21366721.61748
  23924499.008 5  23924499.719 9 125724083.254 5  97966825.813 9  23924499.82447
  23305827.203 6  23305824.930 9 122472937.432 6  95433446.475 9  23305824.89547
  22639955.078 6  22639955.102 8 121023525.233 6  94129413.509 8  22639957.973 8
  19345249.344 8  19345247.859 9 103229972.271 8  80289988.217 9  19345248.527 9
  21347156.961 7  21347156.324 9 114273007.332 7  88879012.029 9  21347156.941 9
  19368744.469 8  19368743.910 9 103646071.875 8  80613618.493 9  19368744.488 9
  20770984.133 8  20770984.027 9 110876940.512 8  86237621.165 9  20770984.680 9
  22083796.250 5  22083794.879 7 118092066.972 5  91849308.515 7  22083794.555 7
 19  5 14 16 29 30.0000000  0 12G13G15G20G21G24G29R01R02R03R17R18R24
  21624133.297 7                 113635604.121 7  88547215.47148  21624130.87548
  20135758.063 8  20135756.051 9 105814139.872 8  82452575.197 9  20135755.73449
  21963890.836 6                 115421114.229 6  89938468.27848  21963887.52348
  21355616.672 7                 112224538.391 7  87447678.32248  21355613.28548
  23901603.953 5  23901603.816 9 125603764.055 5  97873070.603 9  23901603.35947
  23323010.578 6  23323009.449 9 122563239.406 6  95503811.642 9  23323009.25447
  22656167.055 5  22656166.809 8 121110188.230 5  94196818.014 8  22656169.426 8
  19345227.422 8  19345226.934 9 103229861.461 8  80289902.024 9  19345227.797 9
  21329174.883 7  21329174.453 9 114176749.425 7  88804144.798 9  21329174.953 9
  19372806.242 8  19372804.363 9 103667804.807 8  80630521.875 9  19372805.500 9
  20752343.180 7  20752342.754 9 110777434.963 7  86160227.973 9  20752343.633 9
  22104136.664 5  22104134.719 7 118200838.772 5  91933908.803 7  22104135.082 7
 19  5 14 16 30  0.0000000  0 12G13G15G20G21G24G29R01R02R03R17R18R24
  21633203.000 6                 113683263.082 6  88584352.33048  21633200.28148
  20134190.227 8  20134188.012 9 105805898.141 8  82446153.077 9  20134187.30949
  21946739.828 6                 115330985.987 6  89868238.50048  21946737.05148
  21344569.750 7                 112166485.662 7  87402442.42448  21344566.53948
  23878724.898 5  23878725.738 9 125483535.307 5  97779385.839 9  23878724.20347
  23340225.703 6  23340223.703 9 122653699.935 6  95574300.341 9  23340223.11747
  22672385.641 6  22672386.691 8 121196886.473 6  94264249.991 8  22672389.066 8
  19345291.180 8  19345289.766 9 103230198.880 8  80290164.467 9  19345290.605 9
  21311258.516 7  21311258.543 9 114080841.124 7  88729549.477 9  21311258.754 9
  19377014.438 8  19377012.754 9 103690323.143 8  80648036.123 9  19377013.484 9
  20733812.320 8  20733811.879 9 110678512.312 8  86083288.148 9  20733812.500 9
  22124535.344 5  22124533.199 7 118309917.273 5  92018747.625 7  22124533.441 7
 19  5 14 16 30 30.0000000  0 12G13G15G20G21G24G29R01R02R03R17R18R24
  21642357.094 7                 113731368.676 7  88621837.20948  21642354.34448
  20132730.492 7  20132728.770 9 105798228.859 7  82440177.017 9  20132728.31349
  21929620.797 6                 115241027.030 6  89798140.63148  21929618.46948
  21333583.234 7                 112108751.394 7  87357454.68348  21333579.84448
  23855861.797 5  23855863.973 9 125363394.591 5  97685769.684 9  23855862.90247
  23357468.109 6  23357466.188 9 122744310.692 6  95644906.101 9  23357465.59447
  22688610.383 6  22688609.008 8 121283612.696 6  94331703.649 8  22688611.672 8
  19345437.578 8  19345436.078 9 103230978.360 8  80290770.737 9  19345437.102 9
  21293406.719 7  21293406.137 9 113985277.829 7  88655222.494 9  21293406.668 9
  19381368.031 8  19381367.004 9 103713620.290 8  80666156.119 9  19381367.816 9
  20715389.164 7  20715388.641 9 110580171.358 7  86006800.747 9  20715389.664 9
  22144987.195 5  22144986.461 7 118419293.532 5  92103818.039 7  22144987.531 7
 19  5 14 16 31  0.0000000  0 12G13G15G20G21G24G29R01R02R03R17R18R24
  21651597.836 7                 113779929.125 7  88659676.52448  21651595.12148
  20131381.906 8  20131379.559 9 105791141.589 8  82434654.480 9  20131378.95349
  21912537.094 6                 115151248.887 6  89728183.66048  21912534.32448
  21322659.648 7                 112051347.998 7  87312724.76248  21322656.26248
  23833019.781 5  23833020.441 9 125243356.152 5  97592233.305 9  23833020.60247
  23374740.828 6  23374738.898 9 122835079.470 6  95715635.010 9  23374738.50447
  22704839.344 5  22704840.941 8 121370376.212 5  94399186.392 8  22704842.930 8
  19345668.336 8  19345666.762 9 103232208.913 8  80291727.838 9  19345667.504 9
  21275620.930 7  21275620.281 9 113890070.846 7  88581172.633 9  21275621.422 9
  19385869.188 8  19385867.738 9 103737705.875 8  80684889.345 9  19385868.344 9
  20697078.109 8  20697077.691 9 110482426.735 8  85930777.159 9  20697078.645 9
  22165497.273 5  22165498.652 7 118528975.110 5  92189125.930 7  22165498.422 7
 19  5 14 16 31 30.0000000  0 13G10G13G15G20G21G24G29R01R02R03R17R18
                                R24
  24268565.945 2  24268566.488 9 127532169.79812  99375720.97119  24268566.57846
  21660922.891 7                 113828932.040 7  88697860.61848  21660919.96948
  20130142.094 8  20130139.531 9 105784625.149 8  82429576.742 9  20130139.14849
  21895485.195 6                 115061641.902 6  89658360.05248  21895482.87148
  21311797.352 6                 111994266.224 6  87268245.45748  21311793.85548
  23810196.102 5  23810196.238 9 125123412.557 5  97498770.729 9  23810195.41047
  23392041.031 6  23392039.500 9 122925992.962 6  95786476.661 9  23392038.88347
  22721075.906 5  22721076.336 8 121457164.901 5  94466688.687 8  22721078.676 8
  19345981.008 8  19345979.867 9 103233878.442 8  80293026.367 9  19345980.555 9
  21257900.445 7  21257900.141 9 113795210.420 7  88507392.324 9  21257900.488 9
  19390515.430 8  19390514.246 9 103762568.616 8  80704227.017 9  19390514.656 9
  20678877.813 8  20678877.434 9 110385271.648 8  85855212.104 9  20678878.246 9
  22186064.391 5  22186064.645 7 118638947.734 5  92274660.177 7  22186064.402 8
 19  5 14 16 32  0.0000000  0 13G10G13G15G20G21G24G29R01R02R03R17R18
                                R24
  24248992.328 3  24248993.605 9 127429314.090 3  99295573.708 9  24248993.78147
  21670330.961 7                 113878372.312 7  88736385.50348  21670328.39848
  20129010.102 8  20129007.434 9 105778676.187 8  82424941.198 9  20129007.17249
  21878466.227 6                 114972204.404 6  89588668.51548  21878462.78948
  21300996.195 6                 111937505.820 6  87224016.57148  21300992.86348
  23787389.086 5  23787389.891 9 125003564.928 5  97405382.979 9  23787389.73847
  23409368.156 6  23409366.398 9 123017045.758 6  95857426.879 9  23409365.80147
  22737316.023 5  22737315.977 8 121543974.953 5  94534207.563 8  22737317.891 8
  19346375.648 8  19346373.988 9 103235982.458 8  80294662.821 9  19346374.605 9
  21240243.195 7  21240243.316 9 113700694.596 7  88433880.043 9  21240243.520 9
  19395306.164 8  19395304.117 9 103788204.429 8  80724165.971 9  19395305.047 9
  20660788.219 8  20660787.137 9 110288707.699 8  85780106.818 9  20660788.383 9
  22206684.227 5  22206683.590 8 118749205.587 5  92360416.275 8  22206683.500 7
 19  5 14 16 32 30.0000000  0 13G10G13G15G20G21G24G29R01R02R03R17R18
                                R24
  24229433.594 4  24229434.875 9 127326530.449 4  99215482.616 9  24229435.21947
  21679823.820 7                 113928258.408 7  88775257.79048  21679821.15248
  20127987.844 8  20127985.527 9 105773303.867 8  82420754.983 9  20127984.98049
  21861480.953 6                 114882947.764 6  89519117.91448  21861477.74648
  21290258.797 6                 111881079.249 6  87180047.81748  21290255.61348
  23764603.805 5  23764604.172 8 124883826.693 5  97312080.519 8  23764604.14547
  23426721.938 6  23426720.637 9 123108245.281 6  95928491.433 9  23426720.35947
  22753560.836 5  22753560.117 8 121630814.855 5  94601749.725 8  22753562.734 8
  19346852.141 8  19346851.395 9 103238530.093 8  80296644.316 9  19346852.262 9
  21222653.898 7  21222653.520 9 113606534.555 7  88360644.479 9  21222653.824 9
  19400242.156 8  19400240.582 9 103814622.605 8  80744713.437 9  19400241.367 9
  20642812.055 7  20642810.594 9 110192748.687 7  85705472.037 9  20642811.637 9
  22227355.297 5  22227355.629 7 118859755.414 5  92446399.461 7  22227356.254 7
 19  5 14 16 33  0.0000000  0 13G10G13G15G20G21G24G29R01R02R03R17R18
                                R24
  24209886.617 3  24209887.184 8 127223809.906 3  99135440.710 8  24209887.29746
  21689399.039 7                 113978578.579 7  88814468.31048  21689397.16448
  20127072.883 8  20127070.387 9 105768497.800 8  82417009.991 9  20127070.21149
  21844528.289 6                 114793863.149 6  89449701.34048  21844526.16048
  21279582.727 7                 111824978.030 7  87136332.58448  21279579.52048
  23741838.523 5  23741838.570 9 124764191.586 5  97218858.332 9  23741837.97747
  23444103.219 6  23444100.848 9 123199579.053 6  95999660.584 9  23444100.78947
  22769809.945 5  22769809.543 8 121717673.657 5  94669306.470 8  22769811.910 8
  19347411.398 8  19347409.320 9 103241509.829 8  80298961.899 9  19347410.176 9
  21205129.078 7  21205128.047 9 113512721.479 7  88287678.772 9  21205128.789 9
  19405323.500 8  19405322.609 9 103841812.737 8  80765861.311 9  19405323.355 9
  20624947.961 8  20624947.109 9 110097389.290 8  85631303.626 9  20624948.070 9
  22248083.039 5  22248082.359 8 118970584.749 5  92532600.042 8  22248082.609 7
 19  5 14 16 33 30.0000000  0 13G10G13G15G20G21G24G29R01R02R03R17R18
                                R24
  24190350.539 3  24190351.512 8 127121145.393 3  99055442.463 8  24190351.55146
  21699055.758 7                 114029322.796 7  88854009.25048  21699053.64548
  20126264.508 8  20126262.199 9 105764249.832 8  82413699.903 9  20126261.66449
  21827607.883 6                 114704943.939 6  89380413.65748  21827604.80948
  21268967.781 6                 111769196.315 6  87092866.31348  21268964.57048
  23719091.305 5  23719091.848 9 124644655.586 5  97125713.442 9  23719091.34047
  23461506.461 6  23461505.145 9 123291036.892 6  96070926.430 9  23461504.69947
  22786059.563 5  22786060.320 8 121804542.127 5  94736870.821 8  22786063.027 8
  19348048.555 8  19348048.262 9 103244912.691 8  80301608.564 9  19348048.918 9
  21187667.125 7  21187666.695 9 113419248.056 7  88214977.244 9  21187667.102 9
  19410547.727 8  19410546.234 9 103869765.531 8  80787602.367 9  19410547.090 9
  20607195.422 8  20607194.461 9 110002625.472 8  85557598.447 9  20607195.047 9
  22268858.164 5  22268857.789 7 119081681.919 5  92619008.950 7  22268857.691 7
 19  5 14 16 34  0.0000000  0 13G10G13G15G20G21G24G29R01R02R03R17R18
                                R24
  24170828.313 4  24170829.402 8 127018557.336 4  98975503.728 8  24170829.34446
  21708796.188 7                 114080508.575 7  88893894.28348  21708793.65648
  20125565.984 8  20125563.785 9 105760578.802 8  82410839.363 9  20125563.41849
  21810722.641 6                 114616210.964 6  89311271.10448  21810719.86748
  21258418.211 6                 111713756.454 6  87049666.42148  21258415.06348
  23696368.016 5  23696367.785 9 124525242.179 5  97032663.956 9  23696366.80547
  23478937.516 6  23478936.305 9 123382635.698 6  96142302.123 9  23478935.51647
  22802317.484 5  22802316.395 8 121891439.169 5  94804457.364 8  22802318.730 8
  19348769.117 8  19348767.863 9 103248756.759 8  80304598.400 9  19348768.930 9
  21170272.938 7  21170272.684 9 113326135.642 7  88142556.512 9  21170273.121 9
  19415917.219 8  19415915.598 9 103898500.224 8  80809951.566 9  19415916.621 9
  20589559.836 8  20589558.520 9 109908481.610 8  85484375.450 9  20589559.484 9
  22289687.070 5  22289686.543 7 119193064.107 5  92705639.517 7  22289686.766 7
 19  5 14 16 34 30.0000000  0 13G10G13G15G20G21G24G29R01R02R03R17R18
                                R24
  24151322.930 4  24151322.543 8 126916052.348 4  98895629.754 8  24151322.95346
  21718621.109 7                 114132139.862 7  88934126.45048  21718619.30548
  20124977.906 8  20124976.023 9 105757489.729 8  82408432.288 9  20124975.58649
  21793873.664 6                 114527671.076 6  89242279.01448  21793870.97348
  21247934.750 6                 111658666.302 6  87006739.02748  21247931.26248
  23673667.500 4  23673668.590 8 124405960.662 4  96939717.386 8  23673668.53146
  23496396.063 6  23496393.270 9 123474378.535 6  96213790.024 9  23496393.27347
  22818577.844 5  22818578.539 8 121978369.421 5  94872069.751 8  22818580.668 8
  19349573.023 8  19349572.629 9 103253047.434 8  80307935.595 9  19349573.102 9
  21152946.914 7  21152946.957 9 113233391.041 7  88070421.846 9  21152947.563 9
  19421433.703 8  19421432.898 9 103928021.700 8  80832912.709 9  19421433.676 9
  20572040.836 8  20572040.375 9 109814967.696 8  85411642.404 9  20572041.406 9
  22310569.984 5  22310569.875 7 119304734.170 5  92792494.015 7  22310569.801 7
 19  5 14 16 35  0.0000000  0 13G10G13G15G20G21G24G29R01R02R03R17R18
                                R24
  24131830.109 5  24131829.922 8 126813616.561 5  98815809.725 8  24131830.06646
  21728527.883 7                 114184199.528 7  88974692.43048  21728525.53548
  20124497.938 7  20124495.914 9 105754966.975 7  82406466.510 9  20124495.67649
  21777059.273 6                 114439310.596 6  89173426.72248  21777056.74248
  21237515.727 7                 111603912.126 7  86964073.43948  21237511.91848
  23650993.656 4  23650993.188 8 124286799.438 4  96846864.462 8  23650992.80546
  23513877.688 6  23513875.504 9 123566248.021 6  96285376.624 9  23513874.96547
  22834843.758 5  22834843.918 8 122065316.616 5  94939695.311 8  22834846.012 8
  19350457.820 8  19350456.672 9 103257768.045 8  80311607.188 9  19350457.254 9
  21135688.266 7  21135687.547 9 113140999.777 7  87998561.995 9  21135688.035 9
  19427095.055 8  19427094.445 9 103958313.742 8  80856473.178 9  19427095.023 9
  20554637.930 8  20554637.742 9 109722072.458 8  85339390.555 9  20554638.648 9
  22331503.828 6  22331501.773 7 119416673.477 6  92879557.902 7  22331502.559 7
 19  5 14 16 35 30.0000000  0 13G10G13G15G20G21G24G29R01R02R03R17R18
                                R24
  24112350.055 4  24112350.813 8 126711251.210 4  98736044.536 8  24112350.83646
  21738515.961 6                 114236686.316 6  89015591.21648  21738513.52348
  20124125.617 7  20124123.734 9 105753010.358 7  82404941.888 9  20124123.41049
  21760279.719 6                 114351131.199 6  89104715.52048  21760276.83648
  21227160.664 7                 111549497.542 7  86921672.46048  21227157.56348
  23628340.820 4  23628341.520 8 124167762.756 4  96754108.557 8  23628340.74246
  23531384.047 5  23531381.410 9 123658242.419 5  96357060.565 9  23531381.32847
  22851112.617 5  22851112.098 8 122152280.128 5  95007333.569 8  22851113.785 8
  19351423.016 8  19351421.613 9 103262917.309 8  80315612.171 9  19351422.328 9
  21118494.883 7  21118494.191 9 113048963.543 7  87926978.286 9  21118495.035 9
  19432899.289 8  19432897.715 9 103989375.801 8  80880632.543 9  19432898.645 9
  20537353.078 8  20537351.711 9 109629800.692 8  85267623.634 9  20537352.789 9
  22352485.914 5  22352485.957 7 119528879.499 5  92966829.248 7  22352485.949 7
 19  5 14 16 36  0.0000000  0 13G10G13G15G20G21G24G29R01R02R03R17R18
                                R24
  24092884.703 5  24092884.922 8 126608957.207 5  98656334.992 8  24092885.13746
  21748584.570 6                 114289598.396 6  89056821.40648  21748582.47748
  20123860.930 8  20123859.180 9 105751619.637 8  82403858.213 9  20123858.86749
  21743534.445 6                 114263134.761 6  89036146.88748  21743531.55948
  21216871.211 6                 111495424.306 6  86879537.47448  21216867.27048
  23605713.211 4  23605714.297 9 124048854.908 4  96661453.155 9  23605713.87146
  23548913.453 5  23548911.801 9 123750359.145 5  96428839.822 9  23548911.02047
  22867384.867 6  22867383.535 8 122239259.182 6  95074983.921 8  22867385.379 8
  19352467.703 8  19352466.668 9 103268494.414 8  80319949.932 9  19352467.445 9
  21101368.242 7  21101367.633 9 112957283.327 7  87855671.478 9  21101367.941 9
  19438847.547 8  19438846.898 9 104021206.882 8  80905390.048 9  19438847.477 9
  20520184.953 8  20520184.109 9 109538156.678 8  85196344.966 9  20520184.797 9
  22373518.781 5  22373518.113 8 119641349.353 5  93054305.782 8  22373518.223 7
 19  5 14 16 36 30.0000000  0 13G10G13G15G20G21G24G29R01R02R03R17R18
                                R24
  24073432.305 5  24073431.520 8 126506732.945 5  98576679.744 8  24073431.74646
  21758733.766 6                 114342931.193 6  89098379.42548  21758731.00848
  20123703.422 7  20123701.770 9 105750791.188 7  82403212.670 9  20123701.36349
  21726823.680 6                 114175319.424 6  88967719.38248  21726820.45348
  21206646.031 7                 111441692.156 7  86837668.27248  21206642.86748
  23583111.094 3  23583111.473 9 123930076.333 3  96568898.476 9  23583111.10546
  23566465.539 5  23566463.191 8 123842593.454 5  96500710.660 8  23566462.55547
  22883655.648 5  22883656.844 8 122326249.704 5  95142643.188 8  22883659.281 8
  19353592.516 9  19353591.250 9 103274495.331 9  80324617.307 9  19353592.188 9
  21084307.500 7  21084307.957 9 112865957.760 7  87784640.490 9  21084308.234 9
  19444939.219 8  19444937.844 9 104053803.389 8  80930742.883 9  19444938.555 9
  20503134.695 8  20503134.039 9 109447141.769 8  85125555.602 9  20503134.930 9
  22394598.445 5  22394598.367 7 119754077.125 5  93141982.888 7  22394598.859 7
